ID,Source,Severity,Start_Time,End_Time,Start_Lat,Start_Lng,End_Lat,End_Lng,Distance(mi),Description,Street,City,County,State,Zipcode,Country,Timezone,Airport_Code,Weather_Timestamp,Temperature(F),Wind_Chill(F),Humidity(%),Pressure(in),Visibility(mi),Wind_Direction,Wind_Speed(mph),Precipitation(in),Weather_Condition,Amenity,Bump,Crossing,Give_Way,Junction,No_Exit,Railway,Roundabout,Station,Stop,Traffic_Calming,Traffic_Signal,Turning_Loop,Sunrise_Sunset,Civil_Twilight,Nautical_Twilight,Astronomical_Twilight
A-139519,Source2,2,2016-08-30 08:08:24,2016-08-30 08:53:24,28.584143,-81.392075,,,0.0,Accident on FL-424 Edgewater Dr at Maury Rd.,Edgewater Dr,Orlando,Orange,FL,32804-3601,US,US/Eastern,KORL,2016-08-30 08:13:00,75.9,,97.0,29.94,10.0,ENE,5.8,,Mostly Cloudy,False,False,True,False,False,False,False,False,False,False,False,True,False,Day,Day,Day,Day
A-147819,Source2,3,2016-12-22 06:56:52,2016-12-22 07:26:22,33.890293,-84.460991,,,0.01,Right lane blocked due to accident on I-285 Westbound after Exit 20 I-75.,I-75 S,Atlanta,Cobb,GA,30339,US,US/Eastern,KMGE,2016-12-22 06:58:00,47.8,,71.0,30.22,10.0,Calm,,,Mostly Cloudy,False,False,False,False,False,False,False,False,False,False,False,False,False,Night,Night,Day,Day
A-120120,Source2,2,2016-12-28 08:53:14,2016-12-28 09:22:57,27.809502,-82.753738,,,0.01,Accident on Park St both ways at US-19 Alt Bay Pines Blvd.,Tyrone Blvd N,Saint Petersburg,Pinellas,FL,33709-4125,US,US/Eastern,KPIE,2016-12-28 08:53:00,69.1,,90.0,30.19,10.0,NNE,3.5,,Clear,False,False,True,False,False,False,False,False,False,False,False,True,False,Day,Day,Day,Day
A-30335,Source2,2,2016-09-07 12:01:55,2016-09-07 12:31:55,36.667747,-121.808739,,,0.0,Accident on Imjin Pkwy at 2nd Ave.,Imjin Pkwy,Marina,Monterey,CA,93933,US,US/Pacific,KMRY,2016-09-07 11:54:00,73.9,,46.0,29.96,9.0,NW,3.5,,Clear,False,False,True,False,False,False,False,False,False,False,False,False,False,Day,Day,Day,Day
A-170819,Source2,2,2016-11-01 17:52:08,2016-11-01 18:36:54,41.750454,-88.04079399999998,,,0.01,Slow traffic due to accident on 75th St at Janes Ave.,Janes Ave,Woodridge,Dupage,IL,60517-2314,US,US/Central,KLOT,2016-11-01 17:55:00,68.4,,71.0,29.95,10.0,SSW,3.5,,Clear,False,False,True,False,False,False,False,False,False,False,False,True,False,Night,Day,Day,Day
A-180140,Source2,2,2016-12-13 11:39:40,2016-12-13 12:09:18,43.257359,-86.206551,,,0.01,Entry ramp closed due to accident on US-31 Southbound at Exit 116 US-31 Bus Moses J Jones Pkwy.,US-31 S,Muskegon,Muskegon,MI,49442,US,US/Eastern,KMKG,2016-12-13 11:55:00,21.9,9.2,68.0,30.13,10.0,WNW,13.8,,Overcast,False,False,False,False,False,False,False,False,False,False,False,False,False,Day,Day,Day,Day
A-39536,Source2,2,2016-05-22 05:28:51,2016-05-22 06:13:51,38.399319,-122.785355,,,0.01,Accident on Llano Rd at Doyle Rd.,Llano Rd,Santa Rosa,Sonoma,CA,95407-6445,US,US/Pacific,KSTS,2016-05-22 05:28:00,44.1,,100.0,30.07,8.0,Calm,,,Overcast,False,False,False,False,False,False,False,False,False,False,False,False,False,Night,Day,Day,Day
A-135880,Source2,2,2016-08-03 10:34:45,2016-08-03 11:04:45,27.821102000000003,-82.67543,,,0.0,Accident on 31st St at 54th Ave.,54th Ave N,Saint Petersburg,Pinellas,FL,33714,US,US/Eastern,KSPG,2016-08-03 10:53:00,82.0,,74.0,30.06,10.0,South,6.9,,Partly Cloudy,False,False,False,False,False,False,False,False,False,False,False,False,False,Day,Day,Day,Day
A-2234,Source2,2,2016-07-06 08:35:36,2016-07-06 09:05:36,38.018745,-121.94288600000002,,,0.0,Delays due to accident on Bailey Rd at CA-4.,CA-4 E,Pittsburg,Contra Costa,CA,94565,US,US/Pacific,KCCR,2016-07-06 08:53:00,62.1,,62.0,29.93,10.0,South,16.1,,Partly Cloudy,False,False,False,False,False,False,True,False,True,False,False,False,False,Day,Day,Day,Day
A-107042,Source2,2,2016-05-12 15:17:54,2016-05-12 16:02:54,34.023418,-117.747627,,,0.01,Accident on CA-60 Westbound at Exits 29A 29B CA-71. Expect delays.,Pomona Fwy W,Pomona,Los Angeles,CA,91766,US,US/Pacific,KPOC,2016-05-12 14:47:00,84.2,,35.0,30.0,10.0,West,11.5,,Clear,False,False,False,False,False,False,False,False,False,False,False,False,False,Day,Day,Day,Day
A-158019,Source2,2,2016-06-23 17:37:56,2016-06-23 18:52:56,34.301624,-82.222153,,,0.0,Accident on US-25 at SC-254 Cokesbury Rd.,Highway 25 N,Hodges,Greenwood,SC,29653-9670,US,US/Eastern,KGRD,2016-06-23 17:56:00,96.1,,27.0,29.94,10.0,West,9.2,,Clear,False,False,False,False,False,False,False,False,False,False,False,False,False,Day,Day,Day,Day
A-183180,Source2,2,2017-01-20 18:05:08,2017-01-20 18:34:57,43.03706,-83.74266800000002,,,0.0,Accident on Mallery St near Highfield Ave.,Highfield Ave,Flint,Genesee,MI,48504-2457,US,US/Eastern,KFNT,2017-01-20 17:53:00,36.0,,100.0,29.71,0.2,Calm,,,Fog,False,False,False,False,False,False,False,False,False,False,False,False,False,Night,Night,Day,Day
A-17390,Source2,3,2016-11-17 20:11:03,2016-11-17 20:40:44,37.823383,-122.263908,,,0.01,#1 lane blocked due to accident on I-980 Westbound at Exits 2A 2B I-580.,I-580 W,Oakland,Alameda,CA,94609,US,US/Pacific,KOAK,2016-11-17 19:53:00,53.1,,61.0,30.07,10.0,NE,3.5,,Partly Cloudy,False,False,False,False,False,False,False,False,False,False,False,False,False,Night,Night,Night,Night
A-82514,Source2,3,2016-10-08 09:27:15,2016-10-08 10:11:50,33.957836,-118.111847,,,0.0,Accident on I-5 Southbound at Exit 125 Vista del Rosa St.,Lakewood Blvd,Downey,Los Angeles,CA,90240,US,US/Pacific,KCQT,2016-10-08 09:47:00,78.1,,25.0,29.89,10.0,Calm,,,Clear,False,False,False,False,False,False,False,False,False,False,False,False,False,Day,Day,Day,Day
A-45213,Source2,2,2016-06-29 10:39:53,2016-06-29 11:22:00,33.903584,-118.193962,,,0.0,Accident on Atlantic Ave both ways at Rosecrans Ave.,S Atlantic Ave,Compton,Los Angeles,CA,90221-1901,US,US/Pacific,KLGB,2016-06-29 10:53:00,77.0,,60.0,29.91,8.0,Calm,,,Clear,False,False,False,False,False,False,False,False,False,False,False,True,False,Day,Day,Day,Day
A-92401,Source2,2,2016-08-25 12:46:34,2016-08-25 13:23:00,33.734333,-117.834007,,,0.0,Right hand shoulder blocked due to accident on CA-55 Southbound at Exits 10 10A McFadden Ave.,CA-55 S,Tustin,Orange,CA,92780,US,US/Pacific,KSNA,2016-08-25 12:53:00,73.9,,62.0,29.93,10.0,SW,13.8,,Partly Cloudy,False,False,False,False,True,False,False,False,False,False,False,False,False,Day,Day,Day,Day
A-24855,Source2,3,2016-10-16 13:55:08,2016-10-16 14:39:49,37.701103,-122.02116399999998,,,0.01,Accident on I-580 Eastbound at Exit 39 Eden Canyon Rd.,Paloverde Rd,Castro Valley,Alameda,CA,94552,US,US/Pacific,KHWD,2016-10-16 13:54:00,63.0,,87.0,29.79,1.8,WNW,9.2,0.27,Light Rain,False,False,False,False,False,False,False,False,False,False,False,False,False,Day,Day,Day,Day
A-23243,Source2,2,2016-10-05 12:00:05,2016-10-05 12:29:37,37.251087,-121.931229,,,0.0,Accident on CA-85 Northbound at Exit 9 Union Ave.,Norman Y Mineta Hwy,San Jose,Santa Clara,CA,95124,US,US/Pacific,KSJC,2016-10-05 11:53:00,66.9,,45.0,30.09,10.0,WNW,10.4,,Clear,False,False,False,False,False,False,False,False,False,False,False,False,False,Day,Day,Day,Day
A-1412,Source2,3,2016-06-27 11:04:36,2016-06-27 11:49:36,38.704079,-121.312958,,,0.0,#2 lane blocked due to accident on I-80 Eastbound at Exit 100 Antelope Rd.,I-80 E,Citrus Heights,Sacramento,CA,95621,US,US/Pacific,KMCC,2016-06-27 10:55:00,91.4,,23.0,29.97,9.0,West,6.9,,Clear,False,False,False,False,False,False,False,False,False,False,False,False,False,Day,Day,Day,Day
A-45229,Source2,2,2016-06-29 11:42:22,2016-06-29 12:27:22,33.99258,-118.348228,,,0.0,Accident and fallen power cables on Angeles Vista Blvd both ways at Verdun Ave.,S Verdun Ave,Los Angeles,Los Angeles,CA,90043-1540,US,US/Pacific,KHHR,2016-06-29 11:53:00,75.9,,64.0,29.91,8.0,WSW,11.5,,Clear,False,False,False,False,False,False,False,False,False,False,False,True,False,Day,Day,Day,Day
A-144193,Source2,2,2016-07-15 07:04:09,2016-07-15 07:49:09,28.731142,-81.60652900000002,,,0.0,Accident on Jones Ave at US-441 Orange Blossom Trl.,N Orange Blossom Trl,Mount Dora,Orange,FL,32757,US,US/Eastern,KLEE,2016-07-15 06:53:00,81.0,,79.0,30.06,10.0,South,6.9,,Partly Cloudy,False,False,True,False,False,False,True,False,True,False,False,False,False,Day,Day,Day,Day
A-3677,Source2,3,2016-07-21 14:37:45,2016-07-21 15:52:45,38.641544,-121.47156499999998,,,0.0,Accident on I-80 Westbound at Exit 90 Norwood Ave.,I-80 W,Sacramento,Sacramento,CA,95838,US,US/Pacific,KMCC,2016-07-21 14:35:00,89.6,,16.0,30.02,9.0,SW,8.1,,Clear,False,False,False,False,False,False,False,False,False,False,False,False,False,Day,Day,Day,Day
A-152474,Source2,2,2016-11-28 08:51:58,2016-11-28 09:42:00,34.193672,-81.563393,,,0.0,Accident on Counts Sausage Rd at Fire Tower Rd.,Fire Tower Rd,Prosperity,Newberry,SC,29127,US,US/Eastern,KEOE,2016-11-28 08:55:00,42.8,,76.0,30.2,10.0,Calm,,,Overcast,False,False,False,False,False,False,False,False,False,True,False,False,False,Day,Day,Day,Day
A-105526,Source2,3,2016-04-29 22:52:11,2016-04-29 23:50:00,34.296768,-118.416588,,,0.01,Accident on I-210 Westbound at Exit 5 Maclay St.,Foothill Fwy W,Sylmar,Los Angeles,CA,91342,US,US/Pacific,KWHP,2016-04-29 19:47:00,59.0,,63.0,29.93,10.0,ESE,8.1,,Clear,False,False,False,False,False,False,False,False,False,False,False,False,False,Night,Night,Night,Night
A-79004,Source2,2,2016-09-22 18:48:49,2016-09-22 19:33:17,33.876293,-118.100624,,,0.0,#3 lane blocked and right hand shoulder blocked due to accident on CA-91 Eastbound after I-605.,Artesia Fwy E,Cerritos,Los Angeles,CA,90703,US,US/Pacific,KFUL,2016-09-22 18:53:00,69.1,,58.0,29.85,10.0,South,6.9,,Clear,False,False,False,False,False,False,False,False,False,False,False,False,False,Night,Day,Day,Day
A-62827,Source2,3,2017-01-14 10:19:19,2017-01-14 11:00:00,34.056065000000004,-117.546593,,,0.01,Accident on I-15 Southbound at Exits 109 109A 109B I-10.,Ontario Fwy S,Ontario,San Bernardino,CA,91761,US,US/Pacific,KONT,2017-01-14 09:53:00,60.1,,60.0,30.02,10.0,WNW,6.9,,Partly Cloudy,False,False,False,False,False,False,False,False,False,False,False,False,False,Day,Day,Day,Day
A-171865,Source2,2,2016-11-17 16:38:28,2016-11-17 17:23:11,41.90416,-88.120651,,,0.01,Slow traffic due to accident on Gary Ave at IL-64 North Ave.,North Ave,Carol Stream,DuPage,IL,60188,US,US/Central,KDPA,2016-11-17 16:52:00,66.9,,57.0,29.72,10.0,South,16.1,,Clear,False,False,True,False,False,False,False,False,False,False,False,True,False,Night,Day,Day,Day
A-70889,Source2,3,2016-11-10 15:12:39,2016-11-10 15:42:15,34.064995,-118.000229,,,0.01,1 right lane blocked due to accident on I-10 Eastbound at Exits 31A 31B I-605.,I-605 S,Baldwin Park,Los Angeles,CA,91706,US,US/Pacific,KEMT,2016-11-10 14:45:00,91.4,,12.0,29.97,10.0,SW,3.5,,Clear,False,False,False,False,False,False,False,False,False,False,False,False,False,Day,Day,Day,Day
A-28314,Source2,2,2016-08-22 21:48:53,2016-08-22 22:48:53,38.636566,-121.309509,,,0.0,Accident on Fair Oaks Blvd at Marshall Ave.,Fair Oaks Blvd,Carmichael,Sacramento,CA,95608-1905,US,US/Pacific,KMCC,2016-08-22 21:55:00,68.0,,56.0,29.91,10.0,South,12.7,,Clear,False,False,False,False,False,False,False,False,False,False,False,False,False,Night,Night,Night,Night
A-198421,Source2,2,2016-12-30 11:13:51,2016-12-30 11:43:40,41.095097,-74.048302,,,0.01,Accident on NY-45 Chestnut Ridge Rd both ways near Tallman Pl.,Tallman Pl,Spring Valley,Rockland,NY,10977-6220,US,US/Eastern,KHPN,2016-12-30 10:56:00,37.9,29.6,53.0,29.62,10.0,West,13.8,,Mostly Cloudy,False,False,False,False,False,False,False,False,False,False,False,False,False,Day,Day,Day,Day
A-88865,Source2,3,2016-08-11 23:05:11,2016-08-11 23:35:11,33.8396,-118.263474,,,0.0,One lane blocked due to accident on I-405 Southbound at Exit 35 Avalon Blvd.,Avalon Blvd,Carson,Los Angeles,CA,90746,US,US/Pacific,KHHR,2016-08-11 22:53:00,69.1,,81.0,30.02,10.0,West,6.9,,Overcast,False,False,True,False,False,False,False,False,False,False,False,True,False,Night,Night,Night,Night
A-160953,Source2,3,2016-12-05 09:30:52,2016-12-05 10:00:39,41.185158,-96.108849,,,0.01,Accident on I-80 Westbound at Exit 442 Giles Rd.,Giles Rd,La Vista,Sarpy,NE,68128,US,US/Central,KMLE,2016-12-05 09:36:00,38.7,30.9,76.0,29.75,10.0,SSE,12.7,,Clear,False,False,False,False,False,False,False,False,False,False,False,False,False,Day,Day,Day,Day
A-187281,Source2,2,2016-09-20 16:24:13,2016-09-20 16:53:58,43.030666,-83.713081,,,0.0,Accident on Dupont St at Welch Blvd.,Welch Blvd,Flint,Genesee,MI,48504-3143,US,US/Eastern,KFNT,2016-09-20 16:53:00,79.0,,35.0,30.16,10.0,WNW,4.6,,Clear,False,False,False,False,False,False,False,False,True,False,False,True,False,Day,Day,Day,Day
A-165613,Source2,2,2016-03-29 11:00:06,2016-03-29 11:45:06,41.147312,-96.138885,,,0.01,Shoulder blocked on exit ramp due to accident on NE-370 Westbound at NE-50 144th St.,S 144th St,Omaha,Sarpy,NE,68138-3849,US,US/Central,KMLE,2016-03-29 10:55:00,55.2,,45.0,30.03,10.0,SE,13.8,,Clear,False,False,False,False,False,False,False,False,False,False,False,False,False,Day,Day,Day,Day
A-8861,Source2,3,2016-12-28 18:36:56,2016-12-28 19:06:29,38.069607,-122.227264,,,0.01,Middle lane blocked due to accident on I-80 Eastbound at I-80 / TP.,I-80 W,Vallejo,Solano,CA,94590,US,US/Pacific,KAPC,2016-12-28 18:54:00,48.0,,71.0,30.2,10.0,Calm,,,Clear,False,False,False,False,False,False,False,False,False,False,False,False,False,Night,Night,Night,Night
A-166193,Source2,3,2016-04-29 17:17:28,2016-04-29 17:47:28,41.256664,-95.954002,,,0.01,Accident on I-480 Southbound at Exit 2A 29th St.,Harney St,Omaha,Douglas,NE,68105,US,US/Central,KOMA,2016-04-29 17:12:00,48.9,,80.0,30.02,10.0,NE,8.1,,Overcast,False,False,False,False,False,False,False,False,False,False,False,False,False,Day,Day,Day,Day
A-15609,Source2,2,2016-11-07 20:55:06,2016-11-07 21:24:41,37.550369,-122.312004,,,0.01,Accident on CA-92 Westbound at Exits 12A 12B CA-82 El Camino Real.,S El Camino Real,San Mateo,San Mateo,CA,94402,US,US/Pacific,KSQL,2016-11-07 20:47:00,64.4,,88.0,30.14,10.0,Calm,,,Mostly Cloudy,False,False,False,False,False,False,False,False,False,False,False,False,False,Night,Night,Night,Night
A-136879,Source2,2,2016-08-10 20:50:26,2016-08-10 21:35:26,28.62704500000001,-82.446838,,,0.0,Accident on County Hwy-491 Citrus Way at County Hwy-491 Citrus Way.,Citrus Way,Brooksville,Hernando,FL,34601-8427,US,US/Eastern,KBKV,2016-08-10 20:53:00,75.9,,97.0,30.15,6.0,Calm,,,Thunderstorms and Rain,False,False,False,False,False,False,False,False,False,False,False,False,False,Night,Night,Day,Day
A-182224,Source2,2,2017-01-09 14:45:36,2017-01-09 15:45:16,42.814793,-83.78227199999998,,,0.01,Accident on Bridge St at Broad St.,N Bridge St,Linden,Genesee,MI,48451-8822,US,US/Eastern,KFNT,2017-01-09 14:53:00,27.0,16.7,61.0,30.32,10.0,SW,11.5,,Overcast,False,False,False,False,False,False,False,False,False,False,False,True,False,Day,Day,Day,Day
A-66115,Source2,2,2016-10-21 21:52:25,2016-10-21 22:36:54,34.025005,-117.729713,,,0.01,#1 / #2 lane blocked due to accident on CA-60 Eastbound at Exit 30 Reservoir St.,Pomona Fwy E,Pomona,Los Angeles,CA,91766,US,US/Pacific,KPOC,2016-10-21 20:47:00,71.6,,25.0,29.91,10.0,Calm,,,Clear,False,False,False,False,False,False,False,False,False,False,False,True,False,Night,Night,Night,Night
A-86333,Source2,2,2016-08-04 12:06:04,2016-08-04 12:51:04,33.399879,-117.08371,,,0.0,Accident on Pala Temecula Rd Northbound at Aruba Rd.,Pala Temecula Rd,Pala,San Diego,CA,92059-1701,US,US/Pacific,KF70,2016-08-04 12:15:00,86.0,,40.0,29.91,10.0,SW,6.9,,Clear,False,False,False,False,False,False,False,False,False,False,False,False,False,Day,Day,Day,Day
A-90865,Source2,2,2016-08-19 01:33:12,2016-08-19 02:18:12,34.107983000000004,-117.746422,,,0.0,Accident on Equation Rd after Fair Oaks Walk.,Fair Oaks Walk,Pomona,Los Angeles,CA,91767,US,US/Pacific,KPOC,2016-08-19 06:47:00,60.8,,94.0,29.95,10.0,Calm,,,Clear,False,False,False,False,False,False,False,False,False,False,False,False,False,Night,Night,Night,Night
A-8589,Source2,3,2016-12-25 21:43:06,2016-12-25 22:27:26,37.780056,-122.398621,,,0.01,Accident on I-80 Eastbound at 4th St.,4th St,San Francisco,San Francisco,CA,94107-1241,US,US/Pacific,KOAK,2016-12-25 21:53:00,43.0,37.2,80.0,30.15,10.0,NE,10.4,,Clear,False,False,True,False,False,False,False,False,False,False,False,False,False,Night,Night,Night,Night
A-41786,Source2,2,2016-06-10 11:40:28,2016-06-10 12:10:28,37.893341,-121.853035,,,0.0,Right hand shoulder blocked due to accident on Marsh Creek Rd at Aspara Dr.,Marsh Creek Rd,Clayton,Contra Costa,CA,94517-9738,US,US/Pacific,KCCR,2016-06-10 11:53:00,75.9,,21.0,29.95,10.0,WSW,10.4,,Clear,False,False,False,False,False,False,False,False,False,False,False,False,False,Day,Day,Day,Day
A-157332,Source2,3,2016-09-04 14:00:16,2016-09-04 14:30:16,33.846484999999994,-84.247078,,,0.0,Accident on I-285 Southbound at Exit 37 GA-236 Lavista Rd.,I-285 N,Tucker,DeKalb,GA,30084,US,US/Eastern,KPDK,2016-09-04 13:53:00,84.0,,49.0,30.16,10.0,Variable,3.5,,Partly Cloudy,False,False,False,False,False,False,False,False,False,False,False,False,False,Day,Day,Day,Day
A-60152,Source2,2,2017-01-02 21:22:52,2017-01-02 22:07:38,33.704269000000004,-117.033844,,,0.01,Accident on Domenigoni Pkwy Westbound at Warren Rd.,Warren Rd,Winchester,Riverside,CA,92596,US,US/Pacific,KF70,2017-01-02 21:15:00,46.4,,87.0,30.14,10.0,Calm,,,Mostly Cloudy,False,False,False,False,False,False,False,False,False,False,False,True,False,Night,Night,Night,Night
A-172064,Source2,2,2016-11-21 17:13:09,2016-11-21 17:57:49,42.047588,-88.34119399999999,,,0.01,Lane blocked and very slow traffic due to accident on County Hwy-34 Randall Rd at County Hwy-47 Highland Ave.,Randall Rd,Elgin,Kane,IL,60123,US,US/Central,KDPA,2016-11-21 16:52:00,36.0,,41.0,30.29,10.0,Calm,,,Clear,False,False,False,False,False,False,False,False,False,False,False,True,False,Night,Night,Day,Day
A-184678,Source2,2,2016-11-04 13:41:23,2016-11-04 14:11:14,43.063583,-83.51804399999997,,,0.0,Accident on M-15 State Rd at Richfield Rd.,N State Rd,Davison,Genesee,MI,48423,US,US/Eastern,KFNT,2016-11-04 13:53:00,52.0,,63.0,30.4,10.0,NNW,12.7,,Clear,False,False,False,False,False,False,False,False,False,False,False,True,False,Day,Day,Day,Day
A-110446,Source2,3,2016-05-29 16:58:49,2016-05-29 17:28:49,34.120468,-118.271271,,,0.01,Accident on I-5 Northbound at Exits 141 141A 141B Los Feliz Blvd.,Golden State Fwy S,Los Angeles,Los Angeles,CA,90027,US,US/Pacific,KCQT,2016-05-29 16:47:00,68.0,,61.0,29.96,10.0,Variable,3.5,,Clear,False,False,False,False,False,False,False,False,False,False,False,False,False,Day,Day,Day,Day
A-92497,Source2,2,2016-08-25 18:15:20,2016-08-25 19:00:20,32.673313,-117.03933700000002,,,0.0,Right hand shoulder blocked due to accident on CA-54 Eastbound at Exit 4 Woodman St.,CA-54 W,Bonita,San Diego,CA,91902,US,US/Pacific,KSDM,2016-08-25 17:53:00,70.0,,68.0,29.91,10.0,WNW,6.9,,Clear,False,False,False,False,False,False,False,False,False,False,False,False,False,Day,Day,Day,Day
A-34464,Source2,2,2016-04-13 13:31:06,2016-04-13 14:31:06,38.502121,-121.43196100000002,,,0.01,Accident on Stockton Blvd at Jastraub Way.,Stockton Blvd,Sacramento,Sacramento,CA,95823-2322,US,US/Pacific,KSAC,2016-04-13 13:53:00,68.0,,40.0,30.13,10.0,Variable,4.6,,Clear,False,False,True,False,False,False,False,False,False,False,False,False,False,Day,Day,Day,Day
A-148329,Source2,2,2016-12-31 09:48:28,2016-12-31 10:33:17,33.937121999999995,-81.561584,,,0.0,Accident on Old Golf Course Rd at Plantation Ln.,Plantation Ln,Batesburg,Lexington,SC,29006-8292,US,US/Eastern,KAIK,2016-12-31 09:55:00,37.4,33.8,65.0,30.3,10.0,SSW,4.6,,Clear,False,False,False,False,False,False,False,False,False,False,False,False,False,Day,Day,Day,Day
A-97858,Source2,2,2016-03-25 22:20:54,2016-03-25 23:05:54,34.026886,-117.720566,,,0.01,Accident on CA-60 Eastbound in Ontario.,Pomona Fwy E,Chino,San Bernardino,CA,91710,US,US/Pacific,KCNO,2016-03-25 21:53:00,63.0,,48.0,29.82,10.0,WNW,5.8,,Clear,False,False,False,False,False,False,False,False,False,False,False,False,False,Night,Night,Night,Night
A-50494,Source2,2,2016-07-21 20:41:20,2016-07-21 21:11:20,33.996613,-118.204689,,,0.0,Accident on Fruitland Ave at Downey Rd.,S Downey Rd,Vernon,Los Angeles,CA,90058-3746,US,US/Pacific,KCQT,2016-07-21 20:47:00,73.9,,59.0,29.9,10.0,Calm,,,Clear,False,False,True,False,False,False,True,False,False,False,False,True,False,Night,Night,Day,Day
A-29168,Source2,3,2016-08-29 18:22:53,2016-08-29 18:52:53,37.830509,-122.294044,,,0.0,Accident on I-80 I-580 Westbound at Exit 19A I-80 I-580.,I-80 W,Oakland,Alameda,CA,94607,US,US/Pacific,KOAK,2016-08-29 17:53:00,70.0,,65.0,30.02,10.0,West,17.3,,Scattered Clouds,False,False,False,False,False,False,False,False,False,False,False,False,False,Day,Day,Day,Day
A-168440,Source2,2,2016-12-19 14:19:14,2016-12-19 15:04:03,41.760471,-87.974144,,,0.01,Accident on Holly Ave at Cass Ave.,S Cass Ave,Darien,DuPage,IL,60561,US,US/Central,KLOT,2016-12-19 14:15:00,13.1,-3.1,64.0,30.6,10.0,SSW,16.1,,Clear,False,False,False,False,False,False,False,False,False,False,False,False,False,Day,Day,Day,Day
A-107111,Source2,2,2016-05-12 21:38:29,2016-05-12 22:08:29,33.997040000000005,-117.931015,,,0.01,Accident on CA-60 Eastbound at Exit 18 Azusa Ave. Approach with care.,S Azusa Ave,Rowland Heights,Los Angeles,CA,91748,US,US/Pacific,KFUL,2016-05-12 21:53:00,60.1,,86.0,30.0,10.0,South,4.6,,Clear,False,False,False,False,False,False,False,False,False,False,False,False,False,Night,Night,Night,Night
A-28504,Source2,2,2016-08-24 09:12:36,2016-08-24 09:57:36,36.90419,-121.736084,,,0.0,#1 lane blocked due to accident on County Hwy-G11 San Juan Rd at Allison Ln.,San Juan Rd,Royal Oaks,Santa Cruz,CA,95076-5324,US,US/Pacific,KWVI,2016-08-24 08:53:00,57.9,,93.0,30.12,10.0,Calm,,,Overcast,False,False,False,False,False,False,False,False,False,False,False,False,False,Day,Day,Day,Day
A-194409,Source2,3,2016-12-01 08:25:13,2016-12-01 09:09:59,42.70504,-73.85374499999998,,,0.01,Accident on I-90 Eastbound at Exit 24 New York Trwy.,I-90 E,Albany,Albany,NY,12205,US,US/Eastern,KALB,2016-12-01 08:51:00,48.9,,71.0,29.58,10.0,WNW,11.5,0.0,Mostly Cloudy,False,False,False,False,False,False,False,False,False,False,False,False,False,Day,Day,Day,Day
A-20074,Source2,3,2016-09-14 19:30:12,2016-09-14 20:10:00,37.317268,-121.939301,,,0.0,Accident on I-280 Southbound at Exits 1C 5A 5B CA-17.,I-280 S,San Jose,Santa Clara,CA,95128,US,US/Pacific,KSJC,2016-09-14 19:53:00,66.9,,61.0,30.04,10.0,WNW,9.2,,Clear,False,False,False,False,False,False,False,False,False,False,False,False,False,Night,Day,Day,Day
A-143072,Source2,2,2016-07-06 10:25:41,2016-07-06 11:25:41,25.58083,-80.40505999999998,,,0.0,Accident on FL-994 200th St Westbound at 132nd Ave.,SW 200th St,Miami,Miami-Dade,FL,33177-6105,US,US/Eastern,KTMB,2016-07-06 10:53:00,89.1,,59.0,30.15,10.0,SE,11.5,,Partly Cloudy,False,False,False,False,False,False,False,False,False,False,False,False,False,Day,Day,Day,Day
A-125891,Source2,2,2016-11-03 10:03:29,2016-11-03 10:33:13,28.47526,-81.366089,,,0.01,Accident on Hoffner Ave at Randolph Ave.,Hoffner Ave,Orlando,Orange,FL,32809-4226,US,US/Eastern,KMCO,2016-11-03 09:53:00,75.0,,69.0,30.2,10.0,NNE,5.8,,Mostly Cloudy,False,False,True,False,False,False,False,False,False,False,False,False,False,Day,Day,Day,Day
A-55048,Source2,2,2016-12-08 22:19:42,2016-12-08 23:04:18,33.994232000000004,-117.888687,,,0.01,#1 lane blocked due to accident on CA-60 Eastbound at Exit 20 Nogales St.,Pomona Fwy W,Rowland Heights,Los Angeles,CA,91748,US,US/Pacific,KFUL,2016-12-08 21:53:00,55.0,,77.0,30.25,10.0,East,3.5,,Clear,False,False,False,False,False,False,False,False,False,False,False,False,False,Night,Night,Night,Night
A-107081,Source2,3,2016-05-12 19:54:23,2016-05-12 20:54:23,34.311798,-117.47506,,,0.01,Accident on CA-138 Eastbound at I-15. Expect delays.,CA-138,San Bernardino,San Bernardino,CA,92407,US,US/Pacific,KSBD,2016-05-12 19:47:00,82.4,,32.0,29.96,7.0,SW,8.1,,Clear,False,False,False,False,False,False,False,False,False,False,False,False,False,Night,Day,Day,Day
A-139207,Source2,2,2016-08-27 14:53:25,2016-08-27 15:53:25,25.883871,-80.263428,,,0.0,Left lane blocked due to accident on FL-924 Westbound at FL-953 Douglas Road Ext.,Gratigny Pkwy E,Opa Locka,Miami-Dade,FL,33054,US,US/Eastern,KOPF,2016-08-27 14:53:00,89.1,,63.0,29.89,10.0,East,15.0,,Mostly Cloudy,False,False,False,False,False,False,False,False,False,False,False,False,False,Day,Day,Day,Day
A-142558,Source2,2,2016-06-30 19:55:00,2016-06-30 20:55:00,26.60303900000001,-81.630676,,,0.0,Delays expected due to accident on Michigan Rd at FL-884 Leeland Heights Blvd.,Leeland Heights Blvd W,Lehigh Acres,Lee,FL,33936,US,US/Eastern,KRSW,2016-06-30 19:53:00,82.0,,74.0,30.02,10.0,East,13.8,,Partly Cloudy,False,False,True,False,False,False,False,False,False,False,False,False,False,Day,Day,Day,Day
A-91942,Source2,2,2016-08-23 19:37:06,2016-08-23 20:22:06,33.77832,-117.860664,,,0.0,Accident on CA-22 Westbound before Main St. On the median.,CA-22 W,Orange,Orange,CA,92868,US,US/Pacific,KSNA,2016-08-23 19:53:00,71.1,,70.0,29.99,10.0,SW,4.6,,Clear,False,False,False,False,False,False,False,False,False,False,False,False,False,Night,Day,Day,Day
A-162925,Source2,2,2016-11-15 17:10:19,2016-11-15 17:54:59,41.262711,-96.234444,,,0.01,Accident on NE-28B Link Dodge Rd Eastbound at NE-31 204th St.,US-6 W,Elkhorn,Douglas,NE,68022,US,US/Central,KMLE,2016-11-15 17:15:00,62.2,,46.0,29.93,10.0,Calm,,,Clear,False,False,False,False,False,False,False,False,False,False,False,True,False,Night,Day,Day,Day
A-7655,Source2,2,2016-12-18 19:01:05,2016-12-18 20:00:54,38.927837,-121.055748,,,0.01,Accident on Lincoln Way at Sylvan Vista Dr.,Sylvan Vista Dr,Auburn,Placer,CA,95603-3246,US,US/Pacific,KAUN,2016-12-18 18:55:00,35.6,30.7,87.0,30.33,10.0,East,5.8,,Clear,False,False,True,False,False,False,False,False,False,True,False,False,False,Night,Night,Night,Night
A-198195,Source2,2,2016-12-29 05:16:04,2016-12-29 05:45:35,41.581982,-71.50370799999997,,,0.01,Right lane blocked and right hand shoulder blocked due to accident on RI-4 Northbound near Exits 5 5A 5B RI-2 Ten Rod Rd.,RI-4 N,North Kingstown,Washington,RI,02852,US,US/Eastern,KOQU,2016-12-29 07:50:00,35.6,27.5,70.0,30.01,15.0,ESE,11.5,,Overcast,False,False,False,False,False,False,False,False,False,False,False,False,False,Night,Night,Night,Night
A-153869,Source2,3,2016-09-28 17:07:39,2016-09-28 17:35:42,33.890293,-84.460991,,,0.0,Queueing traffic and (two) left lane blocked due to accident on I-285 Westbound after Exit 20 I-75.,I-75 S,Atlanta,Cobb,GA,30339,US,US/Eastern,KMGE,2016-09-28 16:58:00,84.7,,34.0,29.89,10.0,West,8.1,,Partly Cloudy,False,False,False,False,False,False,False,False,False,False,False,False,False,Day,Day,Day,Day
A-142746,Source2,3,2016-07-04 08:56:24,2016-07-04 09:41:24,27.941801,-82.32959,,,0.0,Shoulder blocked due to accident on I-75 Northbound near Exits 256 257 FL-60 Brandon Blvd.,E Adamo Dr,Tampa,Hillsborough,FL,33619,US,US/Eastern,KTPF,2016-07-04 08:55:00,86.0,,79.0,30.16,10.0,South,3.5,,Clear,False,False,False,False,False,False,False,False,False,False,False,False,False,Day,Day,Day,Day
A-67622,Source2,2,2016-10-27 17:39:46,2016-10-27 18:23:46,34.124846999999995,-117.692001,,,0.01,Accident on CA-210 Westbound near Exit 52 CA-30 Baseline Rd.,CA-210 W,Upland,San Bernardino,CA,91784,US,US/Pacific,KONT,2016-10-27 17:53:00,79.0,,36.0,29.84,10.0,South,3.5,,Overcast,False,False,False,False,True,False,False,False,False,False,False,False,False,Day,Day,Day,Day
A-123637,Source2,3,2017-01-23 15:28:42,2017-01-23 15:58:12,28.010773,-82.453804,,,0.01,Right lane blocked due to accident on I-275 Northbound after Exit 48 Sligh Ave.,E Sligh Ave,Tampa,Hillsborough,FL,33604,US,US/Eastern,KTPA,2017-01-23 15:32:00,71.1,,59.0,29.6,10.0,WNW,23.0,0.0,Scattered Clouds,False,False,False,False,False,False,False,False,False,False,False,False,False,Day,Day,Day,Day
A-139021,Source2,2,2016-08-26 06:25:42,2016-08-26 06:55:42,25.812397,-80.24029499999997,,,0.0,Accident on FL-112 Airport Expy Eastbound at FL-9 27th Ave / 38th St.,Airport Expy W,Miami,Miami-Dade,FL,33142,US,US/Eastern,KMIA,2016-08-26 06:53:00,79.0,,97.0,29.94,10.0,Calm,,0.0,Thunderstorm,False,False,False,False,False,False,False,False,False,False,False,False,False,Night,Night,Day,Day
A-13003,Source2,3,2016-10-21 13:28:48,2016-10-21 13:58:23,37.764133,-121.414734,,,0.01,Right hand shoulder blocked due to accident on I-205 Eastbound at Exit 9 MacArthur Dr.,I-205 E,Tracy,San Joaquin,CA,95304,US,US/Pacific,KSCK,2016-10-21 13:55:00,80.1,,34.0,29.91,10.0,NNW,3.5,,Clear,False,False,False,False,False,False,False,False,False,False,False,False,False,Day,Day,Day,Day
A-47395,Source2,2,2016-07-08 10:38:41,2016-07-08 11:08:41,33.998135,-118.369484,,,0.0,Accident on Stocker St at La Cienega Blvd.,Stocker St,Los Angeles,Los Angeles,CA,90056,US,US/Pacific,KLAX,2016-07-08 10:53:00,73.9,,62.0,30.0,7.0,West,8.1,,Partly Cloudy,False,False,False,False,False,False,False,False,False,False,False,True,False,Day,Day,Day,Day
A-21916,Source2,2,2016-09-26 08:25:40,2016-09-26 09:09:58,37.781834,-121.311996,,,0.0,Accident on CA-120 Westbound at I-5.,I-5 S,Lathrop,San Joaquin,CA,95330,US,US/Pacific,KSCK,2016-09-26 08:55:00,75.0,,41.0,30.01,10.0,Calm,,,Clear,False,False,False,False,False,False,False,False,False,False,False,False,False,Day,Day,Day,Day
A-15628,Source2,3,2016-11-07 22:05:04,2016-11-07 22:34:56,37.758404,-122.212173,,,0.01,Accident on I-880 Southbound at Exit 37 66th Ave.,I-880 S,Oakland,Alameda,CA,94621,US,US/Pacific,KOAK,2016-11-07 21:53:00,66.0,,73.0,30.13,10.0,East,6.9,,Mostly Cloudy,False,False,False,False,False,False,False,False,False,False,False,False,False,Night,Night,Night,Night
A-57070,Source2,2,2016-12-16 13:29:19,2016-12-16 14:14:03,33.96714,-117.752113,,,0.01,Accident on CA-142 Carbon Canyon Rd near Old Carbon Canyon Rd.,Old Carbon Canyon Rd,Chino Hills,San Bernardino,CA,91709,US,US/Pacific,KCNO,2016-12-16 13:53:00,59.0,,72.0,29.85,7.0,WSW,15.0,,Mostly Cloudy,False,False,False,False,False,False,False,False,False,False,False,False,False,Day,Day,Day,Day
A-105839,Source2,3,2016-05-03 12:16:25,2016-05-03 13:01:25,32.893799,-117.115143,,,0.01,Accident on I-15 Northbound at Exit 14 Miramar Rd.,I-15 N,San Diego,San Diego,CA,92131,US,US/Pacific,KNKX,2016-05-03 11:55:00,73.0,,53.0,29.96,10.0,West,8.1,,Partly Cloudy,False,False,False,False,False,False,False,False,False,False,False,False,False,Day,Day,Day,Day
A-147237,Source2,2,2016-12-13 10:54:34,2016-12-13 11:39:13,34.232281,-83.858101,,,0.01,Accident on Thurmon Tanner Pkwy at GA-13 Atlanta Hwy.,Atlanta Hwy,Gainesville,Hall,GA,30504,US,US/Eastern,KGVL,2016-12-13 10:53:00,46.0,43.9,93.0,30.12,10.0,ENE,4.6,0.04,Overcast,False,False,False,False,False,False,False,False,False,False,False,True,False,Day,Day,Day,Day
A-162745,Source2,2,2016-11-08 15:18:15,2016-11-08 15:48:02,41.227036,-96.023918,,,0.01,Accident on 72nd St Northbound before Grover St.,S 72nd St,Omaha,Douglas,NE,68124-3573,US,US/Central,KMLE,2016-11-08 15:15:00,61.0,,42.0,30.4,10.0,North,8.1,,Clear,False,False,True,False,False,False,False,False,False,False,False,True,False,Day,Day,Day,Day
A-79294,Source2,3,2016-09-23 22:59:31,2016-09-23 23:44:15,34.321411,-118.49675,,,0.0,Slow lane blocked due to accident on I-5 Northbound at Exits 161A 161B I-210.,I-5 N,Sylmar,Los Angeles,CA,91342,US,US/Pacific,KWHP,2016-09-23 19:47:00,71.6,,46.0,29.99,10.0,ESE,9.2,,Clear,False,False,False,False,False,False,False,False,False,False,False,False,False,Night,Night,Night,Night
A-149213,Source2,2,2017-01-16 10:50:14,2017-01-16 11:50:04,33.724018,-84.34944899999998,,,0.01,Accident on US-23 Moreland Ave at Confederate Ave.,Moreland Ave SE,Atlanta,Fulton,GA,30316-3182,US,US/Eastern,KATL,2017-01-16 10:52:00,60.1,,80.0,30.32,10.0,ESE,5.8,,Mostly Cloudy,False,False,True,False,False,False,False,False,False,False,False,True,False,Day,Day,Day,Day
A-78376,Source2,3,2016-09-20 10:50:04,2016-09-20 11:19:51,32.997971,-117.083481,,,0.0,Accident on I-15 Southbound at Exit 22 Camino del Norte.,Escondido Fwy S,San Diego,San Diego,CA,92129,US,US/Pacific,KNKX,2016-09-20 10:55:00,81.0,,60.0,29.96,10.0,East,4.6,0.0,Light Drizzle,False,False,False,False,False,False,False,False,False,False,False,False,False,Day,Day,Day,Day
A-3002,Source2,3,2016-07-14 10:51:29,2016-07-14 11:21:29,37.94537,-122.058289,,,0.0,Right hand shoulder blocked due to accident on I-680 Southbound before Monument Blvd.,I-680 S,Pleasant Hill,Contra Costa,CA,94523,US,US/Pacific,KCCR,2016-07-14 10:53:00,82.9,,37.0,29.92,10.0,NNW,6.9,,Clear,False,False,False,False,False,False,False,False,False,False,False,True,False,Day,Day,Day,Day
A-146758,Source2,3,2016-12-06 08:41:56,2016-12-06 09:11:34,33.741446999999994,-84.41757199999998,,,0.01,Left lane blocked due to accident on I-20 Eastbound at Exit 55A Oak St.,Joseph E Lowery Blvd SW,Atlanta,Fulton,GA,30310,US,US/Eastern,KATL,2016-12-06 08:52:00,53.1,,100.0,29.73,0.5,East,10.4,0.01,Light Rain,False,False,False,False,False,False,False,False,False,False,False,False,False,Day,Day,Day,Day
A-171964,Source2,2,2016-11-18 17:02:52,2016-11-18 17:47:39,41.90958,-88.101128,,,0.01,Accident on Schmale Rd at Kehoe Blvd.,N Schmale Rd,Carol Stream,DuPage,IL,60188,US,US/Central,KDPA,2016-11-18 16:52:00,50.0,,61.0,29.78,10.0,WSW,25.3,,Partly Cloudy,False,False,True,False,False,False,False,False,True,True,False,False,False,Night,Night,Day,Day
A-135134,Source2,3,2016-10-18 15:01:32,2016-10-18 15:44:35,28.027182,-82.18695100000002,,,2.05,Accident on I-4 Westbound from Exit 19 FL-566 Thonotosassa Rd to Exit 17 Branch Forbes Rd.,Branch Forbes Rd,Plant City,Hillsborough,FL,33565,US,US/Eastern,KPCM,2016-10-18 14:55:00,87.8,,52.0,29.99,10.0,East,3.5,,Clear,False,False,False,False,False,False,False,False,False,False,False,False,False,Day,Day,Day,Day
A-4831,Source2,3,2016-07-30 11:53:05,2016-07-30 12:50:00,37.700474,-121.925644,,,0.0,Accident on I-580 Westbound at Exits 44B 45 I-680.,I-580 W,Dublin,Alameda,CA,94568,US,US/Pacific,KLVK,2016-07-30 11:53:00,82.9,,36.0,29.8,10.0,SSW,6.9,,Clear,False,False,False,False,False,False,True,False,False,False,False,False,False,Day,Day,Day,Day
A-143624,Source2,2,2016-07-11 11:57:00,2016-07-11 12:57:00,25.896465,-80.379623,,,0.0,Accident on US-27 Okeechobee Rd Southbound at 112th Ct.,W Okeechobee Rd,Miami,Miami-Dade,FL,33178,US,US/Eastern,KMIA,2016-07-11 11:53:00,88.0,,65.0,30.11,10.0,ESE,12.7,,Mostly Cloudy,False,False,False,False,False,False,False,False,False,False,False,False,False,Day,Day,Day,Day
A-178284,Source2,2,2016-07-19 10:50:19,2016-07-19 11:35:19,41.846123,-87.97776800000004,,,0.0,Accident on 22nd St at Tower Dr.,17W750 22nd St,Oakbrook Terrace,Dupage,IL,60181-4402,US,US/Central,KORD,2016-07-19 10:51:00,84.0,,47.0,30.24,10.0,Calm,,,Mostly Cloudy,False,False,False,False,False,False,False,False,False,True,False,False,False,Day,Day,Day,Day
A-75007,Source2,3,2016-11-24 22:57:29,2016-11-24 23:41:51,33.617264,-117.264839,,,0.01,Right hand shoulder blocked due to accident on I-15 Southbound before Exit 69 / Baxter Rd. On the median.,Corona Fwy S,Wildomar,Riverside,CA,92595,US,US/Pacific,KF70,2016-11-24 22:55:00,50.0,,40.0,30.13,10.0,Calm,,,Clear,False,False,False,False,False,False,False,False,False,False,False,False,False,Night,Night,Night,Night
A-93511,Source2,2,2016-08-29 20:11:29,2016-08-29 20:56:29,33.96785,-117.915268,,,0.0,Accident on Fullerton Rd near Pathfinder Rd.,Pathfinder Rd,Rowland Heights,Los Angeles,CA,91748-7700,US,US/Pacific,KFUL,2016-08-29 19:53:00,78.1,,48.0,29.83,10.0,Variable,3.5,,Clear,False,False,False,False,False,False,False,False,False,False,False,True,False,Night,Night,Day,Day
A-78629,Source2,3,2016-09-21 10:01:33,2016-09-21 10:30:41,32.771736,-117.132065,,,0.0,Connecting roadway blocked due to accident on I-805 Southbound at Exits 17 17B I-8.,I-8 E,San Diego,San Diego,CA,92108,US,US/Pacific,KMYF,2016-09-21 09:53:00,73.9,,87.0,29.91,10.0,Calm,,,Mostly Cloudy,False,False,False,False,False,False,False,False,False,False,False,False,False,Day,Day,Day,Day
A-168378,Source2,2,2016-12-19 09:06:03,2016-12-19 10:05:41,41.987404,-88.16804499999998,,,0.01,Accident on Newport Blvd at Devon Ave.,Newport Blvd,Bartlett,DuPage,IL,60103,US,US/Central,KDPA,2016-12-19 08:52:00,-4.0,-22.1,76.0,30.77,10.0,South,11.5,,Clear,False,False,False,False,False,False,False,False,False,False,False,False,False,Day,Day,Day,Day
A-97954,Source2,2,2016-03-26 18:02:58,2016-03-26 18:32:58,34.120979,-117.828873,,,0.01,Accident on I-210 Westbound at Exits 44 45 CA-57.,Foothill Fwy W,Glendora,Los Angeles,CA,91740,US,US/Pacific,KPOC,2016-03-26 17:47:00,73.4,,47.0,29.89,10.0,West,11.5,,Clear,False,False,False,False,False,False,False,False,False,False,False,False,False,Day,Day,Day,Day
A-36659,Source2,3,2016-04-28 18:51:49,2016-04-28 19:36:49,37.701622,-121.918404,,,0.01,One lane blocked and slow traffic due to accident on I-580 Eastbound near Exits 44B 45 I-680.,I-580 E,Pleasanton,Alameda,CA,94588,US,US/Pacific,KLVK,2016-04-28 18:53:00,64.9,,52.0,29.91,10.0,South,8.1,,Clear,False,False,False,False,False,False,False,False,False,False,False,False,False,Day,Day,Day,Day
A-100049,Source2,3,2016-04-05 17:48:22,2016-04-05 18:33:22,34.0872,-118.234116,,,0.0,One lane blocked due to accident on I-5 Northbound near Exit 137B CA-110.,I-5 N,Los Angeles,Los Angeles,CA,90031,US,US/Pacific,KCQT,2016-04-05 17:47:00,75.9,,33.0,29.95,10.0,West,4.6,,Clear,False,False,False,False,False,False,False,False,False,False,False,False,False,Day,Day,Day,Day
A-62318,Source2,2,2017-01-12 17:05:53,2017-01-12 17:50:21,34.497375,-118.616379,,,0.01,Accident on Ridge Route Rd near Forest Rte-7N09 Lake Hughes Rd.,Ridge Route Rd,Castaic,Los Angeles,CA,91384-3374,US,US/Pacific,K3A6,2017-01-12 16:51:00,53.0,53.0,89.0,29.05,10.0,SSE,9.0,0.0,Cloudy,False,False,True,False,False,False,False,False,False,True,False,False,False,Night,Day,Day,Day
A-153606,Source2,2,2016-09-25 14:39:38,2016-09-25 15:15:00,33.391815,-82.062157,,,0.0,Accident on Windsor Spring Rd at Woodlake Rd.,Windsor Spring Rd,Augusta,Richmond,GA,30906-4643,US,US/Eastern,KAGS,2016-09-25 14:53:00,90.0,,45.0,30.04,10.0,East,9.2,,Partly Cloudy,False,False,False,False,False,False,False,False,False,False,False,False,False,Day,Day,Day,Day
A-52053,Source2,3,2016-07-28 10:55:31,2016-07-28 11:25:31,33.774548,-118.08016200000002,,,0.0,Lane blocked due to accident on I-405 Northbound at Exit 23 CA-22.,I-405 N,Seal Beach,Orange,CA,90740,US,US/Pacific,KSLI,2016-07-28 10:58:00,80.1,,62.0,29.92,10.0,SSW,9.2,,Clear,False,False,False,False,False,False,False,False,False,False,False,False,False,Day,Day,Day,Day
A-117994,Source2,3,2016-12-14 09:35:32,2016-12-14 10:05:15,27.82129500000001,-82.664513,,,0.01,Accident on I-275 Northbound at Exits 26 26A 26B 54th Ave.,I-275 N,Saint Petersburg,Pinellas,FL,33714,US,US/Eastern,KSPG,2016-12-14 09:30:00,64.0,,100.0,30.1,1.5,ESE,6.9,,Overcast,False,False,False,False,False,False,False,False,False,False,False,False,False,Day,Day,Day,Day
A-198289,Source2,2,2016-12-29 13:59:36,2016-12-29 14:44:22,41.926895,-73.912605,,,0.01,Right hand shoulder blocked due to accident on US-9 Mill St Southbound at NY-308 Market St.,Mill St,Rhinebeck,Dutchess,NY,12572-1427,US,US/Eastern,KPOU,2016-12-29 13:53:00,34.0,31.0,96.0,29.56,1.8,NW,3.5,0.06,Overcast,False,False,True,False,False,False,False,False,True,False,False,True,False,Day,Day,Day,Day
A-88544,Source2,2,2016-08-11 12:02:36,2016-08-11 12:41:00,34.164921,-118.382584,,,0.0,#1 lane blocked due to accident on CA-170 Southbound at Exit 6 Magnolia Blvd.,Magnolia Blvd,North Hollywood,Los Angeles,CA,91601-3007,US,US/Pacific,KBUR,2016-08-11 11:53:00,79.0,,48.0,29.98,10.0,South,9.2,,Clear,False,False,False,False,False,False,False,False,False,False,False,True,False,Day,Day,Day,Day
A-165587,Source2,2,2016-03-28 09:00:29,2016-03-28 09:30:29,41.29409,-95.968552,,,0.0,Accident on 37th St at Spaulding St.,Spaulding St,Omaha,Douglas,NE,68111,US,US/Central,KOMA,2016-03-28 08:52:00,39.0,31.0,57.0,30.1,10.0,SSE,13.8,,Scattered Clouds,False,False,False,False,False,False,False,False,False,False,False,False,False,Day,Day,Day,Day
A-192158,Source2,3,2016-06-21 15:35:42,2016-06-21 16:20:42,42.385242,-83.276398,,,0.0,Left hand shoulder blocked due to accident on I-96 Eastbound after Exit 179 Schoolcraft.,Telegraph Rd,Redford,Wayne,MI,48239,US,US/Eastern,KDTW,2016-06-21 15:53:00,84.9,,29.0,29.84,10.0,West,16.1,,Scattered Clouds,False,False,False,False,False,False,False,False,False,False,False,False,False,Day,Day,Day,Day
A-129631,Source2,3,2016-11-27 13:26:50,2016-11-27 13:56:02,26.033426,-80.16439799999998,,,0.01,Center lane blocked due to accident on I-95 Northbound before Exit 21 FL-822 Sheridan St.,Sheridan St,Hollywood,Broward,FL,33020,US,US/Eastern,KFLL,2016-11-27 13:53:00,79.0,,45.0,29.99,10.0,NE,11.5,,Partly Cloudy,False,False,False,False,False,False,False,False,False,False,False,False,False,Day,Day,Day,Day
A-116942,Source2,3,2016-12-07 07:16:55,2016-12-07 07:46:38,26.461716,-80.088387,,,0.01,Accident on I-95 Southbound at Exit 52 FL-806 Atlantic Ave.,I-95 N,Delray Beach,Palm Beach,FL,33444,US,US/Eastern,KBCT,2016-12-07 07:25:00,73.4,,94.0,30.03,5.0,NW,6.9,,Overcast,False,False,False,False,False,False,False,False,False,False,False,False,False,Day,Day,Day,Day
A-83239,Source2,2,2016-10-12 09:12:49,2016-10-12 09:47:00,34.119724,-117.761322,,,0.01,Accident on CA-210 Westbound at Exit 48 Fruit St.,Foothill Fwy W,La Verne,Los Angeles,CA,91750,US,US/Pacific,KPOC,2016-10-12 08:47:00,57.2,,88.0,30.11,2.5,Calm,,,Overcast,False,False,False,False,False,False,False,False,False,False,False,False,False,Day,Day,Day,Day
A-62829,Source2,2,2017-01-14 10:58:55,2017-01-14 11:43:34,34.509388,-118.112122,,,0.01,Accident on CA-14 Southbound at Exit 30 Sierra Hwy.,CA-14 S,Palmdale,Los Angeles,CA,93550,US,US/Pacific,KPMD,2017-01-14 10:53:00,51.1,,71.0,30.14,10.0,NNE,4.6,,Clear,False,False,False,False,False,False,False,False,False,False,False,False,False,Day,Day,Day,Day
A-190411,Source2,2,2016-08-12 21:18:37,2016-08-12 21:48:37,42.91262800000001,-85.616676,,,0.0,Accident on M-11 28th St near Englewood Ave.,Englewood Ave SE,Grand Rapids,Kent,MI,49508,US,US/Eastern,KGRR,2016-08-12 21:02:00,75.0,,90.0,29.84,10.0,ESE,5.8,,Mostly Cloudy,False,False,False,False,False,False,False,False,False,False,False,True,False,Night,Day,Day,Day
A-11476,Source2,2,2017-01-17 20:34:03,2017-01-17 21:03:44,38.240273,-122.066422,,,0.01,#1 lane blocked due to accident on CA-12 Eastbound at Beck Ave.,Beck Ave,Fairfield,Solano,CA,94533,US,US/Pacific,KSUU,2017-01-17 20:38:00,41.0,38.0,100.0,30.15,4.0,North,4.6,,Overcast,False,False,False,False,False,False,False,False,False,False,False,True,False,Night,Night,Night,Night
A-99594,Source2,2,2016-04-04 00:59:38,2016-04-04 01:29:38,34.003772999999995,-118.281029,,,0.0,Accident on Vernon Ave Westbound at I-110. Expect delays.,Harbor Fwy N,Los Angeles,Los Angeles,CA,90037,US,US/Pacific,KCQT,2016-04-04 00:47:00,60.1,,69.0,30.05,10.0,Calm,,,Clear,False,False,False,False,False,False,False,False,False,False,False,False,False,Night,Night,Night,Night
A-188330,Source2,2,2016-10-03 15:16:13,2016-10-03 15:45:36,42.998352,-85.688461,,,0.0,Accident on Alpine Ave near Pannell Ave.,Alpine Ave NW,Grand Rapids,Kent,MI,49504-2872,US,US/Eastern,KGRR,2016-10-03 15:11:00,64.9,,73.0,30.1,10.0,East,5.8,,Overcast,False,False,False,False,False,False,True,False,False,False,False,False,False,Day,Day,Day,Day
A-75451,Source2,2,2016-11-27 10:37:39,2016-11-27 11:20:09,34.003994,-117.83017,,,0.01,Accident on CA-57 Eastbound at Exits 16 24A CA-60.,Pomona Fwy E,Diamond Bar,Los Angeles,CA,91765,US,US/Pacific,KPOC,2016-11-27 09:47:00,48.2,,93.0,30.09,1.8,Calm,,,Overcast,False,False,False,False,False,False,False,False,False,False,False,False,False,Day,Day,Day,Day
A-24548,Source2,2,2016-10-14 19:09:33,2016-10-14 19:50:00,37.963692,-122.511826,,,0.01,Accident on US-101 Northbound at Exits 451 451A 451B I-580.,US-101 N,San Rafael,Marin,CA,94901,US,US/Pacific,KDVO,2016-10-14 19:15:00,62.6,,82.0,29.94,10.0,SSW,5.8,,Mostly Cloudy,False,False,False,False,False,False,False,False,False,False,False,False,False,Night,Night,Day,Day
A-72032,Source2,2,2016-11-14 19:10:38,2016-11-14 19:55:20,34.149132,-118.803955,,,0.01,Lane blocked due to accident on US-101 Eastbound at Exit 39 Lindero Canyon Rd.,US-101 N,Westlake Village,Los Angeles,CA,91361,US,US/Pacific,KCMA,2016-11-14 18:55:00,62.1,,84.0,30.1,10.0,West,3.5,,Clear,False,False,False,False,False,False,False,False,False,False,False,False,False,Night,Night,Night,Night
A-46839,Source2,2,2016-07-06 17:19:57,2016-07-06 18:04:57,34.143787,-117.32029,,,0.0,Accident on CA-210 Eastbound near Exit 74 I-215.,CA-210 E,San Bernardino,San Bernardino,CA,92405,US,US/Pacific,KSBD,2016-07-06 17:24:00,88.5,,27.0,29.91,10.0,West,15.0,,Clear,False,False,False,False,False,False,False,False,False,False,False,False,False,Day,Day,Day,Day
A-134392,Source2,2,2016-10-13 08:45:23,2016-10-13 09:30:09,28.245844,-81.466362,,,0.0,Accident on Ross Lanier Ln at Kimlyn Cir.,Ross Lanier Ln,Kissimmee,Osceola,FL,34758-2135,US,US/Eastern,KISM,2016-10-13 08:56:00,73.0,,87.0,30.09,10.0,NNE,5.8,,Clear,False,False,False,False,False,False,False,False,False,False,False,False,False,Day,Day,Day,Day
A-177880,Source2,3,2016-07-08 19:58:48,2016-07-08 20:43:48,42.007065,-88.336205,,,0.0,Accident on Randall Rd at County Hwy-17 Bowes Rd.,Bowes Rd,Elgin,Kane,IL,60123-5528,US,US/Central,KDPA,2016-07-08 19:52:00,78.1,,50.0,29.83,10.0,WNW,11.5,,Partly Cloudy,False,False,False,False,False,False,False,False,False,False,False,True,False,Day,Day,Day,Day
A-177935,Source2,2,2016-07-11 14:44:24,2016-07-11 15:44:24,41.859348,-88.067284,,,0.0,Very slow traffic due to accident on IL-38 Roosevelt Rd at Main St.,Roosevelt Rd,Glen Ellyn,Dupage,IL,60137-5734,US,US/Central,KDPA,2016-07-11 14:52:00,89.1,,52.0,29.91,10.0,South,17.3,,Partly Cloudy,False,False,True,False,False,False,False,False,False,False,False,True,False,Day,Day,Day,Day
A-128164,Source2,2,2016-11-17 08:29:40,2016-11-17 09:29:28,27.789194,-82.67130300000002,,,0.0,Accident on 18th Ave at 28th St.,18th Ave N,Saint Petersburg,Pinellas,FL,33713-5543,US,US/Eastern,KSPG,2016-11-17 08:53:00,66.0,,73.0,30.11,9.0,NE,9.2,,Clear,False,False,False,False,False,False,False,False,True,False,False,False,False,Day,Day,Day,Day
A-18366,Source2,2,2016-11-23 15:17:57,2016-11-23 15:47:18,38.334351,-122.993431,,,0.01,Lane blocked due to accident on CA-1 at Bay Hill Rd.,S Highway 1,Bodega Bay,Sonoma,CA,94923,US,US/Pacific,KSTS,2016-11-23 14:53:00,55.0,,62.0,30.28,10.0,NNW,4.6,,Scattered Clouds,False,False,False,False,False,False,False,False,False,False,False,False,False,Day,Day,Day,Day
A-17710,Source2,2,2016-11-19 13:57:57,2016-11-19 14:27:39,38.576286,-121.415321,,,0.01,Accident on Howe Ave Northbound near Cadillac Dr.,Howe Ave,Sacramento,Sacramento,CA,95825,US,US/Pacific,KMCC,2016-11-19 13:55:00,53.6,,88.0,29.97,5.0,ESE,9.2,,Light Rain,False,False,False,False,False,False,False,False,False,False,False,False,False,Day,Day,Day,Day
A-77577,Source2,3,2016-09-16 09:45:54,2016-09-16 10:15:54,34.225758,-117.410812,,,0.0,#3 and #4 lane blocked due to accident on I-15 Southbound at Exit 123 I-215.,I-215 S,San Bernardino,San Bernardino,CA,92407,US,US/Pacific,KSBD,2016-09-16 09:46:00,73.4,,33.0,29.96,7.0,Calm,,,Clear,False,False,False,False,False,False,False,False,False,False,False,False,False,Day,Day,Day,Day
A-163710,Source2,2,2016-09-24 16:02:01,2016-09-24 16:31:51,41.29958,-96.023842,,,0.0,Accident on 72nd St at Ames Ave.,Ames Ave,Omaha,Douglas,NE,68134,US,US/Central,KMLE,2016-09-24 15:55:00,74.3,,89.0,29.9,10.0,South,3.5,0.04,,False,False,False,False,False,False,False,False,False,False,False,True,False,Day,Day,Day,Day
A-35459,Source2,2,2016-04-20 23:53:53,2016-04-21 01:08:53,37.71089600000001,-120.929344,,,0.01,Accident on Claribel Rd at Terminal Ave.,Claribel Rd,Modesto,Stanislaus,CA,95357-1603,US,US/Pacific,KMOD,2016-04-20 23:53:00,62.1,,70.0,29.9,10.0,NNW,6.9,,Clear,False,False,True,False,False,False,True,False,False,False,False,False,False,Night,Night,Night,Night
A-65739,Source2,3,2016-10-20 17:38:00,2016-10-20 18:22:43,34.423031,-118.583374,,,0.01,Accident on I-5 Southbound before Exit 170 Magic Mountain Pkwy. On the median.,Golden State Fwy S,Valencia,Los Angeles,CA,91355,US,US/Pacific,K3A6,2016-10-20 17:51:00,88.0,88.0,6.0,29.04,10.0,N,15.0,0.0,Fair,False,False,False,False,False,False,False,False,False,False,False,False,False,Day,Day,Day,Day
A-133520,Source2,3,2016-10-05 05:17:22,2016-10-05 05:47:22,29.337116,-81.129372,,,0.0,Accident on I-95 Northbound at Exit 273 US-1.,Rosemary St,Ormond Beach,Volusia,FL,32174,US,US/Eastern,KOMN,2016-10-05 06:50:00,73.4,,100.0,29.88,10.0,Calm,,,Scattered Clouds,False,False,False,False,False,False,False,False,False,False,False,False,False,Night,Night,Night,Night
A-114113,Source2,2,2016-06-10 20:26:19,2016-06-10 21:11:19,34.144787,-117.27358999999998,,,0.0,Shoulder blocked on entry ramp due to accident on CA-210 Eastbound near Exit 76 30th St.,CA-210 E,San Bernardino,San Bernardino,CA,92404,US,US/Pacific,KSBD,2016-06-10 20:49:00,73.4,,53.0,29.9,7.0,WSW,8.1,,Mostly Cloudy,False,False,False,False,False,False,False,False,False,False,False,False,False,Night,Day,Day,Day
A-152125,Source2,3,2016-11-22 11:22:57,2016-11-22 11:52:33,33.781532,-84.390869,,,0.01,Two left lane blocked due to accident on I-75 Northbound before 10th St.,10th St NW,Atlanta,Fulton,GA,30309-3810,US,US/Eastern,KFTY,2016-11-22 10:53:00,55.0,,20.0,30.3,10.0,SE,9.2,,Clear,False,False,False,False,False,False,False,False,False,False,False,True,False,Day,Day,Day,Day
A-166613,Source2,2,2016-05-23 11:43:18,2016-05-23 12:13:18,41.24876,-96.066048,,,0.0,Multi-vehicle accident on 99th Cir Westbound at Pacific St.,Pacific St,Omaha,Douglas,NE,68114-4909,US,US/Central,KMLE,2016-05-23 11:35:00,70.3,,80.0,29.82,5.0,SSW,9.2,0.03,Thunderstorms and Rain,False,False,False,False,False,False,False,False,False,False,False,False,False,Day,Day,Day,Day
A-160934,Source2,2,2016-12-04 12:28:14,2016-12-04 13:12:52,41.292213,-96.119629,,,0.01,Multi-vehicle accident on NE-64 Maple Rd near 132nd St.,N 132nd St,Omaha,Douglas,NE,68164,US,US/Central,KMLE,2016-12-04 12:35:00,35.6,29.9,85.0,29.96,10.0,WSW,6.9,,Mostly Cloudy,False,False,False,False,False,False,False,False,False,False,False,True,False,Day,Day,Day,Day
A-144201,Source2,3,2016-07-15 07:23:43,2016-07-15 07:53:43,25.93162,-80.204338,,,0.0,Accident on I-95 Express Southbound at Exits 12 12C 2nd Ave. Express lanes blocked.,I-95 S,Miami,Miami-Dade,FL,33169,US,US/Eastern,KHWO,2016-07-15 07:53:00,79.0,,88.0,30.1,9.0,South,5.8,0.03,Light Rain,False,False,False,False,False,False,False,False,False,False,False,False,False,Day,Day,Day,Day
A-31930,Source2,3,2016-03-29 01:33:00,2016-03-29 02:33:00,37.414558,-121.880264,,,0.01,Right hand shoulder blocked due to accident on I-680 Southbound at Exit 6 County Hwy-G4 Montague Expy.,Montague Expy,Milpitas,Santa Clara,CA,95035,US,US/Pacific,KSJC,2016-03-29 01:53:00,46.9,,77.0,29.91,10.0,ESE,3.5,,Clear,False,False,False,False,False,False,False,False,False,False,False,False,False,Night,Night,Night,Night
A-45274,Source2,2,2016-06-29 14:06:24,2016-06-29 15:06:24,34.497375,-118.616379,,,0.0,Accident on Forest Rte-7N09 Lake Hughes Rd near Ridge Route Rd.,Ridge Route Rd,Castaic,Los Angeles,CA,91384-3374,US,US/Pacific,K3A6,2016-06-29 13:51:00,94.0,94.0,32.0,29.02,10.0,S,14.0,0.0,Fair,False,False,True,False,False,False,False,False,False,True,False,False,False,Day,Day,Day,Day
A-16810,Source2,3,2016-11-15 10:06:53,2016-11-15 10:36:34,37.692383,-122.140259,,,0.01,Accident on I-880 Northbound at Exit 31B Washington Ave.,I-880 N,San Leandro,Alameda,CA,94578,US,US/Pacific,KHWD,2016-11-15 09:54:00,62.1,,70.0,30.16,10.0,SSE,5.8,,Overcast,False,False,False,False,False,False,False,False,False,False,False,False,False,Day,Day,Day,Day
A-195680,Source2,3,2016-12-09 15:53:51,2016-12-09 16:38:42,41.118748,-74.15974399999998,,,0.01,Accident on I-287 Northbound at I-87.,I-287 S,Suffern,Rockland,NY,10901,US,US/Eastern,KCDW,2016-12-09 15:53:00,37.0,30.4,36.0,30.19,10.0,NW,9.2,,Overcast,False,False,False,False,False,False,False,False,False,False,False,False,False,Day,Day,Day,Day
A-161300,Source2,2,2016-12-16 17:43:02,2016-12-16 18:12:53,41.248264,-96.330376,,,0.0,Accident on County Hwy-96 264th St at Pacific St.,Pacific St,Waterloo,Douglas,NE,68069-6600,US,US/Central,KMLE,2016-12-16 17:35:00,26.6,22.6,92.0,29.62,3.0,East,3.5,,Overcast,False,False,False,False,False,False,False,False,False,False,False,False,False,Night,Night,Day,Day
A-118410,Source2,2,2016-12-16 09:49:44,2016-12-16 10:19:14,27.26922,-82.464569,,,0.0,Accident on Honore Ave at FL-72 Clark Rd.,Clark Rd,Sarasota,Sarasota,FL,34233,US,US/Eastern,KSRQ,2016-12-16 09:53:00,66.9,,66.0,30.2,10.0,East,10.4,,Overcast,False,False,False,False,False,False,False,False,False,False,False,True,False,Day,Day,Day,Day
A-67567,Source2,3,2016-10-27 12:51:15,2016-10-27 13:29:00,33.941364,-118.096634,,,0.01,Right hand shoulder blocked due to accident on I-605 Southbound at Exits 11 12 I-5.,I-605 S,Downey,Los Angeles,CA,90241,US,US/Pacific,KLGB,2016-10-27 12:53:00,79.0,,47.0,29.94,6.0,Variable,3.5,,Haze,False,False,False,False,False,False,False,False,False,False,False,False,False,Day,Day,Day,Day
A-810,Source2,3,2016-06-21 20:02:45,2016-06-21 20:32:45,37.690559,-122.074669,,,0.0,Accident on I-580 Eastbound at Exit 36 Redwood Rd.,I-580 E,Castro Valley,Alameda,CA,94546,US,US/Pacific,KHWD,2016-06-21 19:54:00,66.0,,59.0,29.99,10.0,West,8.1,,Clear,False,False,False,False,False,False,True,False,True,False,False,False,False,Day,Day,Day,Day
A-17750,Source2,2,2016-11-19 19:47:34,2016-11-19 20:17:09,38.210583,-122.6007,,,0.01,Accident on US-101 Redwood Hwy Southbound at Redwood Hwy.,Kastania Rd,Petaluma,Sonoma,CA,94952,US,US/Pacific,KO69,2016-11-19 19:55:00,55.4,,100.0,29.95,2.0,ESE,3.5,0.02,Overcast,False,False,False,False,False,False,False,False,False,False,False,False,False,Night,Night,Night,Night
A-33011,Source2,2,2016-04-05 09:39:14,2016-04-05 10:09:14,37.423897,-122.096291,,,0.0,One lane blocked due to accident on US-101 Northbound at Exits 400A 400B Rengstorff Ave.,US-101 N,Palo Alto,Santa Clara,CA,94303,US,US/Pacific,KPAO,2016-04-05 09:47:00,66.2,,49.0,30.24,10.0,North,,,Clear,False,False,False,False,False,False,False,False,False,False,False,False,False,Day,Day,Day,Day
A-84069,Source2,3,2016-10-14 20:00:14,2016-10-14 20:44:50,34.095539,-118.244049,,,0.01,#3 lane blocked due to accident on I-5 Southbound before Stadium Way.,Riverside Dr,Los Angeles,Los Angeles,CA,90031,US,US/Pacific,KCQT,2016-10-14 19:47:00,63.0,,81.0,29.96,10.0,Variable,3.5,,Clear,False,False,False,False,False,False,False,False,False,False,False,False,False,Night,Night,Night,Night
A-75228,Source2,2,2016-11-26 02:08:42,2016-11-26 02:53:23,34.102726000000004,-118.19783,,,0.01,Right hand shoulder blocked due to accident on CA-110 Southbound at Exit 28A Avenue 52.,Pasadena Fwy S,Los Angeles,Los Angeles,CA,90042,US,US/Pacific,KCQT,2016-11-26 01:47:00,51.1,,54.0,30.02,10.0,Calm,,,Clear,False,False,False,False,True,False,False,False,False,False,False,False,False,Night,Night,Night,Night
A-157816,Source2,2,2016-09-11 08:17:27,2016-09-11 08:47:27,33.447948,-82.006721,,,0.0,Accident on Olive Rd both ways at GA-4 Milledgeville Rd.,Olive Rd,Augusta,Richmond,GA,30904-4911,US,US/Eastern,KDNL,2016-09-11 07:53:00,75.9,,82.0,30.06,10.0,SSW,6.9,,Clear,False,False,False,False,False,False,False,False,False,False,False,True,False,Day,Day,Day,Day
A-68104,Source2,3,2016-10-31 19:31:44,2016-10-31 20:16:20,33.924686,-118.103981,,,0.01,#4 lane blocked due to accident on I-605 Northbound after Firestone Blvd.,Manchester Ave,Norwalk,Los Angeles,CA,90650,US,US/Pacific,KFUL,2016-10-31 19:53:00,63.0,,67.0,29.99,10.0,Calm,,,Clear,False,False,False,False,False,False,False,False,False,False,False,False,False,Night,Night,Night,Night
A-163708,Source2,2,2016-09-24 15:32:03,2016-09-24 16:01:43,41.299572,-95.956558,,,0.0,Accident on 30th St at Ames Ave.,Ames Ave,Omaha,Douglas,NE,68111-2458,US,US/Central,KOMA,2016-09-24 15:36:00,75.0,,87.0,29.91,4.0,South,4.6,0.01,Light Thunderstorms and Rain,False,False,True,False,False,False,False,False,False,False,False,True,False,Day,Day,Day,Day
A-120974,Source2,2,2017-01-04 12:43:36,2017-01-04 13:27:53,27.71314000000001,-82.434044,,,0.01,Accident on US-41 at FL-674 College Ave.,S US Highway 41,Ruskin,Hillsborough,FL,33570-4748,US,US/Eastern,KMCF,2017-01-04 12:58:00,74.1,,70.0,29.9,10.0,NNW,9.2,,Clear,False,False,True,False,False,False,False,False,False,False,False,True,False,Day,Day,Day,Day
A-89985,Source2,3,2016-08-16 09:17:31,2016-08-16 09:55:00,34.065517,-117.5448,,,0.0,Accident on I-15 Northbound before Exits 109 109A 109B I-10.,I-15 N,Ontario,San Bernardino,CA,91761,US,US/Pacific,KONT,2016-08-16 08:53:00,82.0,,17.0,29.86,10.0,SE,4.6,,Clear,False,False,False,False,False,False,False,False,False,False,False,False,False,Day,Day,Day,Day
A-116800,Source3,2,2016-12-06 08:16:15,2016-12-06 08:45:46,26.708525,-80.166084,,,0.01,Left lane blocked due to accident on FL-704 Okeechobee Blvd Eastbound at Golden Lakes Blvd.,Okeechobee Blvd,West Palm Beach,Palm Beach,FL,33411,US,US/Eastern,KPBI,2016-12-06 07:53:00,77.0,,84.0,29.98,10.0,SSW,10.4,,Partly Cloudy,False,False,False,False,False,False,False,False,False,False,False,True,False,Day,Day,Day,Day
A-109833,Source2,2,2016-05-27 09:19:58,2016-05-27 10:07:00,33.998631,-117.856377,,,0.01,Accident on CA-60 Westbound at Exit 23 Brea Canyon Rd.,Pomona Fwy W,Walnut,Los Angeles,CA,91789,US,US/Pacific,KPOC,2016-05-27 09:47:00,64.4,,68.0,29.97,10.0,West,8.1,,Scattered Clouds,False,False,False,False,False,False,False,False,False,False,False,False,False,Day,Day,Day,Day
A-198424,Source2,2,2016-12-30 11:15:18,2016-12-30 11:44:57,42.41656500000001,-71.110596,,,0.01,Accident on MA-38 Main St at South St.,Main St,Medford,Middlesex,MA,02155,US,US/Eastern,KBOS,2016-12-30 10:54:00,39.0,30.3,60.0,29.48,10.0,WSW,16.1,,Partly Cloudy,False,False,False,False,False,False,False,False,True,True,False,True,False,Day,Day,Day,Day
A-22620,Source2,3,2016-09-30 16:57:48,2016-09-30 17:26:41,37.940063,-121.298279,,,0.0,Accident on I-5 Southbound at Exit 471 Charter Way. On exit ramp.,CA-4 W,Stockton,San Joaquin,CA,95206,US,US/Pacific,KSCK,2016-09-30 16:55:00,73.9,,25.0,30.0,10.0,West,19.6,,Clear,False,False,False,False,False,False,False,False,False,False,False,False,False,Day,Day,Day,Day
A-6604,Source2,2,2016-12-09 22:04:36,2016-12-09 23:19:11,38.29031,-121.441452,,,0.01,Multi-vehicle accident on County Hwy-E13 Twin Cities Rd Westbound after County Hwy-J8 Franklin Blvd.,Twin Cities Rd,Elk Grove,Sacramento,CA,95757,US,US/Pacific,KSAC,2016-12-09 21:53:00,57.0,,96.0,30.11,6.0,SE,6.9,0.0,Mostly Cloudy,False,False,False,False,False,False,False,False,False,False,False,False,False,Night,Night,Night,Night
A-60036,Source2,3,2016-12-31 18:29:58,2016-12-31 18:59:44,33.862309,-118.199303,,,0.01,Accident on I-710 Northbound at Exits 7 7A 7B Long Beach Blvd.,Long Beach Fwy N,Long Beach,Los Angeles,CA,90805,US,US/Pacific,KLGB,2016-12-31 18:53:00,52.0,,80.0,29.88,10.0,NW,8.1,0.0,Overcast,False,False,False,False,False,False,False,False,False,False,False,False,False,Night,Night,Night,Night
A-13495,Source2,3,2016-10-25 11:45:55,2016-10-25 12:30:29,38.661053,-121.359779,,,0.01,Accident on I-80 Eastbound at Exit 96 Madison Ave.,I-80 E,Sacramento,Sacramento,CA,95841,US,US/Pacific,KMCC,2016-10-25 11:35:00,64.4,,73.0,30.09,10.0,SSE,9.2,,Overcast,False,False,True,False,False,False,False,False,False,False,False,False,False,Day,Day,Day,Day
A-48711,Source2,2,2016-07-14 12:15:45,2016-07-14 12:52:00,33.722378000000006,-117.79232,,,0.0,Accident on El Camino Real both ways between Myford Rd and Jamboree Rd.,El Camino Real,Tustin,Orange,CA,92782,US,US/Pacific,KSNA,2016-07-14 11:53:00,75.9,,64.0,30.01,10.0,SSW,8.1,,Partly Cloudy,False,False,False,False,False,False,False,False,False,False,False,True,False,Day,Day,Day,Day
A-3998,Source2,3,2016-07-24 02:06:05,2016-07-24 02:51:05,37.701324,-121.845016,,,0.0,Right hand shoulder blocked due to accident on I-580 Westbound at Exit 48 El Charro Rd.,I-580 W,Pleasanton,Alameda,CA,94588,US,US/Pacific,KLVK,2016-07-24 01:53:00,64.0,,58.0,29.82,10.0,WNW,3.5,,Clear,False,False,False,False,False,False,False,False,False,False,False,False,False,Night,Night,Night,Night
A-93501,Source2,3,2016-08-29 19:57:39,2016-08-29 20:42:39,32.871208,-117.196487,,,0.0,Accident on I-805 Southbound after Exits 25 25B Miramar Rd.,I-805 S,San Diego,San Diego,CA,92122,US,US/Pacific,KNKX,2016-08-29 19:55:00,72.0,,68.0,29.86,10.0,WNW,6.9,,Clear,False,False,False,False,False,False,False,False,False,False,False,False,False,Night,Night,Day,Day
A-14709,Source2,3,2016-11-02 22:00:20,2016-11-02 22:30:00,37.316757,-121.922066,,,0.01,Right hand shoulder blocked due to accident on I-280 Southbound at Exits 4 5A Meridian Ave.,I-280 S,San Jose,Santa Clara,CA,95128,US,US/Pacific,KSJC,2016-11-02 21:53:00,59.0,,72.0,30.18,10.0,ESE,3.5,,Clear,False,False,False,False,True,False,False,False,False,False,False,False,False,Night,Night,Night,Night
A-190028,Source2,2,2016-08-08 14:41:05,2016-08-08 15:11:05,42.985657,-85.590439,,,0.0,Accident on M-44 Beltline Ave near Waters Cir.,E Beltline Ave NE,Grand Rapids,Kent,MI,49525,US,US/Eastern,KGRR,2016-08-08 14:53:00,81.0,,39.0,30.09,10.0,ESE,8.1,,Scattered Clouds,False,False,False,False,False,False,False,False,False,False,False,False,False,Day,Day,Day,Day
A-138801,Source2,2,2016-08-24 12:31:20,2016-08-24 13:46:20,28.478745,-81.449173,,,0.0,Lane blocked on exit ramp due to accident on FL-91 Southbound at Exit 259 I-4.,Ronald Reagan Tpke,Orlando,Orange,FL,32819,US,US/Eastern,KMCO,2016-08-24 12:38:00,82.0,,85.0,30.15,10.0,ENE,8.1,0.01,Mostly Cloudy,False,False,False,False,False,False,False,False,False,False,False,False,False,Day,Day,Day,Day
A-187743,Source2,2,2016-09-27 08:09:35,2016-09-27 08:39:11,42.991177,-83.506935,,,0.0,Accident on M-15 State Rd between Montague Rd and Atherton Rd.,E Atherton Rd,Davison,Genesee,MI,48423-8704,US,US/Eastern,KFNT,2016-09-27 07:53:00,51.1,,68.0,29.77,10.0,SSW,9.2,,Clear,False,False,False,False,False,False,False,False,False,False,False,False,False,Day,Day,Day,Day
A-178151,Source2,2,2016-07-14 17:59:05,2016-07-14 18:59:05,41.772339,-88.037888,,,0.0,Accident on 63rd St at Puffer Rd.,Puffer Rd,Woodridge,DuPage,IL,60517,US,US/Central,KLOT,2016-07-14 17:55:00,81.9,,45.0,29.87,10.0,West,16.1,,Scattered Clouds,False,False,False,False,False,False,False,False,False,True,False,False,False,Day,Day,Day,Day
A-92569,Source2,3,2016-08-25 22:38:38,2016-08-25 23:23:38,32.647968,-117.061317,,,0.0,Accident on County Hwy-S17 Bonita Rd Eastbound at I-805.,Bonita Rd,Chula Vista,San Diego,CA,91910-3025,US,US/Pacific,KNRS,2016-08-25 22:56:00,61.0,,83.0,29.94,7.0,Calm,,,Partly Cloudy,False,False,False,False,False,False,False,False,False,False,False,False,False,Night,Night,Night,Night
A-11965,Source2,3,2017-01-20 11:07:36,2017-01-20 11:36:52,38.671066,-121.590378,,,0.01,Right hand shoulder blocked due to accident on I-5 Southbound at Exit 528 Airport Blvd.,CA-16 E,Sacramento,Sacramento,CA,95837,US,US/Pacific,KSMF,2017-01-20 10:53:00,50.0,,83.0,29.34,10.0,South,17.3,,Overcast,False,False,False,False,False,False,False,False,False,False,False,False,False,Day,Day,Day,Day
A-182022,Source2,3,2017-01-05 19:39:34,2017-01-05 20:09:19,42.97253,-85.692596,,,0.01,Accident on I-196 Westbound before Lane Ave.,I-196 E,Grand Rapids,Kent,MI,49504,US,US/Eastern,KGRR,2017-01-05 19:48:00,8.6,0.1,79.0,29.97,1.5,NW,4.6,0.01,Light Snow,False,False,False,False,False,False,False,False,False,False,False,False,False,Night,Night,Night,Night
A-48838,Source2,2,2016-07-14 18:18:44,2016-07-14 19:03:44,33.837032,-117.305084,,,0.0,Accident on Cajalco Rd near Alexander St.,Cajalco Rd,Perris,Riverside,CA,92570-8176,US,US/Pacific,KRIV,2016-07-14 17:58:00,90.3,,25.0,29.91,10.0,NW,13.8,,Clear,False,False,False,False,False,False,False,False,False,False,False,False,False,Day,Day,Day,Day
A-168315,Source2,2,2016-12-18 00:58:54,2016-12-18 01:28:40,41.801762,-88.16729699999998,,,0.01,Accident on County Hwy-53 Diehl Rd Westbound at Winfield Rd.,Winfield Rd,Warrenville,DuPage,IL,60555,US,US/Central,KDPA,2016-12-18 00:52:00,17.1,1.5,77.0,29.99,1.8,NNW,17.3,0.0,Light Snow,False,False,True,False,False,False,False,False,False,False,False,True,False,Night,Night,Night,Night
A-55832,Source2,3,2016-12-12 19:54:59,2016-12-12 20:39:25,33.651348,-117.757835,,,0.01,Accident on I-405 Northbound after Exit 2 CA-133.,I-405 N,Irvine,Orange,CA,92618,US,US/Pacific,KSNA,2016-12-12 19:53:00,60.1,,90.0,30.09,10.0,Calm,,,Overcast,False,False,False,False,False,False,False,False,False,False,False,False,False,Night,Night,Night,Night
A-180824,Source2,3,2016-12-17 04:26:03,2016-12-17 05:10:47,42.253731,-83.30368,,,0.01,Left hand shoulder blocked due to accident on I-94 Eastbound at Exit 200 Ecorse Rd.,Ecorse Rd,Taylor,Wayne,MI,48180,US,US/Eastern,KDTW,2016-12-17 04:25:00,23.0,17.0,92.0,29.7,1.0,South,4.6,0.0,Light Snow,False,False,False,False,False,False,False,False,False,False,False,False,False,Night,Night,Night,Night
A-185563,Source2,2,2016-11-16 18:11:00,2016-11-16 18:40:50,43.00536,-83.739067,,,0.0,Accident on Mann Hall Ave near Sunday St.,Mann Hall Ave,Flint,Genesee,MI,48532-5044,US,US/Eastern,KFNT,2016-11-16 17:53:00,45.0,41.2,80.0,29.99,10.0,West,6.9,,Partly Cloudy,False,False,False,False,False,False,False,False,False,False,False,False,False,Night,Night,Day,Day
A-81720,Source2,3,2016-10-05 11:51:59,2016-10-05 12:31:00,34.222126,-118.366646,,,0.0,Right hand shoulder blocked due to accident on I-5 Northbound at Exits 150 150B Sunland Blvd.,I-5 N,Sun Valley,Los Angeles,CA,91352,US,US/Pacific,KBUR,2016-10-05 11:53:00,70.0,,44.0,29.9,10.0,Calm,,,Clear,False,False,False,False,False,False,False,False,False,False,False,False,False,Day,Day,Day,Day
A-98880,Source2,3,2016-03-31 11:05:50,2016-03-31 11:39:00,33.888973,-118.189003,,,0.0,Shoulder blocked due to accident on I-710 Southbound at Exits 9 9A 9B Alondra Blvd.,Long Beach Fwy S,Compton,Los Angeles,CA,90221,US,US/Pacific,KLGB,2016-03-31 10:53:00,64.0,,50.0,30.06,10.0,SSW,4.6,,Clear,False,False,False,False,False,False,False,False,False,False,False,False,False,Day,Day,Day,Day
A-106008,Source2,3,2016-05-04 13:36:37,2016-05-04 14:06:37,33.855217,-118.282028,,,0.01,Right hand shoulder blocked due to accident on I-405 Northbound at Exits 36 37 37A I-110.,S Figueroa St,Gardena,Los Angeles,CA,90248-4517,US,US/Pacific,KHHR,2016-05-04 13:53:00,64.0,,65.0,29.95,10.0,West,11.5,,Overcast,False,False,False,False,False,False,False,False,False,False,False,False,False,Day,Day,Day,Day
A-29937,Source2,2,2016-09-04 16:30:31,2016-09-04 17:15:31,38.449287,-122.725983,,,0.0,Accident on US-101 Southbound at Exit 490 College Ave.,Redwood Hwy S,Santa Rosa,Sonoma,CA,95401,US,US/Pacific,KSTS,2016-09-04 16:53:00,84.0,,22.0,29.73,10.0,South,8.1,,Partly Cloudy,False,False,False,False,True,False,False,False,False,False,False,False,False,Day,Day,Day,Day
A-168163,Source2,2,2016-12-15 09:53:30,2016-12-15 10:53:12,41.994576,-88.20656600000002,,,0.0,Accident on Bartlett Rd at Park Place Dr.,W Bartlett Rd,Bartlett,Cook,IL,60103,US,US/Central,KDPA,2016-12-15 09:52:00,1.9,-14.7,58.0,30.5,10.0,WNW,11.5,,Clear,False,False,False,False,False,False,False,False,False,False,False,True,False,Day,Day,Day,Day
A-163935,Source2,3,2016-10-03 05:19:28,2016-10-03 06:18:24,41.224289,-96.086113,,,0.0,Accident on I-80 Westbound at Exits 445 446 I-680.,I-80 W,Omaha,Douglas,NE,68144,US,US/Central,KMLE,,,,,,,,,,,False,False,False,False,False,False,False,False,False,False,False,False,False,Night,Night,Night,Night
A-42734,Source2,2,2016-06-19 19:22:05,2016-06-19 20:07:05,38.719013,-121.392372,,,0.0,Accident on Watt Ave at Center Court Ln.,Center Court Ln,Antelope,Sacramento,CA,95843,US,US/Pacific,KMCC,2016-06-19 19:15:00,87.8,,18.0,29.97,9.0,Calm,,,Clear,False,False,False,False,False,False,False,False,False,False,False,False,False,Day,Day,Day,Day
A-111380,Source2,3,2016-06-02 01:34:35,2016-06-02 02:34:35,34.069122,-117.35302,,,0.01,Accident now on the shoulder on I-10 Westbound at Exit 69 Pepper Ave.,N Pepper Ave,Colton,San Bernardino,CA,92324,US,US/Pacific,KSBD,2016-06-02 06:50:00,62.6,,82.0,29.96,3.0,Calm,,,Haze,False,False,False,False,False,False,False,False,False,False,False,False,False,Night,Night,Night,Night
A-25428,Source2,3,2016-10-19 20:36:31,2016-10-19 21:06:16,38.200356,-122.159225,,,0.01,Accident on I-80 Westbound at Exits 39 39A Red Top Rd.,I-80 W,American Canyon,Solano,CA,94503,US,US/Pacific,KAPC,2016-10-19 20:54:00,55.9,,67.0,30.09,10.0,East,3.5,,Clear,False,False,False,False,False,False,False,False,False,False,False,False,False,Night,Night,Night,Night
A-92373,Source2,3,2016-08-25 11:35:02,2016-08-25 12:33:00,33.994007,-118.069946,,,0.0,Right hand shoulder blocked due to accident on I-605 Northbound at Exit 15 CA-72 Whittier Blvd.,Whittier Blvd,Whittier,Los Angeles,CA,90606,US,US/Pacific,KEMT,2016-08-25 17:46:00,78.8,,51.0,29.89,10.0,South,11.5,,Clear,False,False,False,False,False,False,False,False,False,False,False,False,False,Day,Day,Day,Day
A-35005,Source2,2,2016-04-18 19:26:21,2016-04-18 20:41:21,38.524944,-121.447578,,,0.01,Accident on Fruitridge Rd at Dewey Blvd.,Fruitridge Rd,Sacramento,Sacramento,CA,95820-5303,US,US/Pacific,KSAC,2016-04-18 19:53:00,75.9,,38.0,29.98,10.0,SW,5.8,,Clear,False,False,False,False,False,False,False,False,False,False,False,False,False,Day,Day,Day,Day
A-126884,Source2,2,2016-11-09 12:37:15,2016-11-09 13:06:57,28.566866,-81.20766400000002,,,0.01,Accident on Alafaya Trl at FL-50 Colonial Dr.,N Alafaya Trl,Orlando,Orange,FL,32826-4713,US,US/Eastern,KORL,2016-11-09 12:53:00,75.9,,56.0,30.05,10.0,West,3.5,,Mostly Cloudy,False,False,True,False,False,False,False,False,False,False,False,True,False,Day,Day,Day,Day
A-125296,Source2,3,2016-10-31 09:14:35,2016-10-31 09:44:22,27.137402,-82.410439,,,0.01,Accident on I-75 Southbound at Exit 195 Laurel Rd.,Laurel Rd E,Nokomis,Sarasota,FL,34275,US,US/Eastern,KVNC,2016-10-31 09:15:00,71.6,,78.0,30.06,10.0,NE,10.4,,Clear,False,False,False,False,False,False,False,False,False,False,False,False,False,Day,Day,Day,Day
A-95549,Source2,3,2016-09-06 10:47:23,2016-09-06 11:17:23,33.126751,-117.104607,,,0.0,Accident on I-15 Southbound at Exit 32 CA-78.,I-15 N,Escondido,San Diego,CA,92025,US,US/Pacific,KRNM,2016-09-06 10:53:00,73.0,,51.0,29.83,10.0,Variable,3.5,,Clear,False,False,False,False,False,False,False,False,False,False,False,False,False,Day,Day,Day,Day
A-78864,Source2,2,2016-09-22 10:01:13,2016-09-22 10:31:02,33.037682000000004,-116.83398400000002,,,0.0,Accident on Old Julian Hwy at Philton Dr.,E Old Julian Hwy,Ramona,San Diego,CA,92065-2954,US,US/Pacific,KRNM,2016-09-22 09:53:00,69.1,,78.0,29.93,8.0,South,11.5,,Mostly Cloudy,False,False,False,False,False,False,False,False,False,False,False,False,False,Day,Day,Day,Day
A-197434,Source2,2,2016-12-22 06:48:00,2016-12-22 07:17:43,40.584606,-73.960274,,,0.01,Left lane blocked due to accident on Belt Pkwy Westbound after Exits 7B 8 Coney Island Ave.,Coney Island Ave,Brooklyn,Kings,NY,11235,US,US/Eastern,KJRB,2016-12-22 06:55:00,39.2,,56.0,30.42,,Calm,,,Overcast,False,False,True,False,True,False,False,False,False,True,False,False,False,Night,Day,Day,Day
A-72391,Source2,3,2016-11-15 19:42:09,2016-11-15 20:25:14,34.120468,-118.271271,,,0.01,#2 lane blocked due to accident on I-5 Southbound before Los Feliz Blvd.,Golden State Fwy S,Los Angeles,Los Angeles,CA,90027,US,US/Pacific,KCQT,2016-11-15 19:47:00,62.1,,90.0,29.95,10.0,Calm,,,Clear,False,False,False,False,False,False,False,False,False,False,False,False,False,Night,Night,Night,Night
A-111329,Source2,2,2016-06-01 20:46:56,2016-06-01 21:46:56,33.920444,-117.432175,,,0.01,Accident on CA-91 Northbound in Riverside.,Riverside Fwy W,Riverside,Riverside,CA,92503,US,US/Pacific,KRAL,2016-06-01 20:53:00,69.1,,65.0,29.89,10.0,West,8.1,,Clear,False,False,False,False,False,False,False,False,False,False,False,False,False,Night,Night,Day,Day
A-197373,Source2,3,2016-12-21 16:54:36,2016-12-21 17:39:29,41.10247,-74.028183,,,0.01,Accident on I-87 I-287 Northbound at Exit 14 NY-59.,W Route 59,Nanuet,Rockland,NY,10954,US,US/Eastern,KHPN,2016-12-21 16:56:00,36.0,32.1,48.0,30.19,10.0,WSW,4.6,,Clear,False,False,False,False,False,False,False,False,False,False,False,False,False,Night,Day,Day,Day
A-102678,Source2,3,2016-04-18 17:08:11,2016-04-18 18:08:11,33.913028999999995,-118.12538899999998,,,0.01,HOV lane blocked and right hand shoulder blocked due to accident on I-105 Eastbound near Exit 17 Bellflower Blvd.,Bellflower Blvd,Downey,Los Angeles,CA,90242,US,US/Pacific,KLGB,2016-04-18 16:53:00,86.0,,14.0,29.99,10.0,WNW,12.7,,Clear,False,False,False,False,False,False,False,False,False,False,False,False,False,Day,Day,Day,Day
A-62202,Source2,3,2017-01-12 10:25:25,2017-01-12 11:04:00,34.114952,-117.97763799999998,,,0.01,#1 &amp; #2 lane blocked due to accident on I-605 Northbound at Arrow Hwy.,San Gabriel River Fwy N,Baldwin Park,Los Angeles,CA,91706,US,US/Pacific,KEMT,2017-01-12 10:45:00,53.6,,100.0,30.0,6.0,ENE,4.6,,Overcast,False,False,False,False,False,False,False,False,False,False,False,False,False,Day,Day,Day,Day
A-55321,Source2,3,2016-12-09 21:41:57,2016-12-09 22:26:40,33.677608,-117.75827,,,0.01,#1 lane blocked due to accident on I-5 Southbound at Exits 96 96A 96B CA-133.,Sand Canyon Ave,Irvine,Orange,CA,92618,US,US/Pacific,KSNA,2016-12-09 21:53:00,60.1,,96.0,30.19,4.0,Calm,,,Overcast,False,False,False,False,False,False,False,False,False,False,False,False,False,Night,Night,Night,Night
A-143501,Source2,2,2016-07-10 13:04:47,2016-07-10 13:34:47,26.54628,-81.871399,,,0.0,Accident on US-41 Cleveland Ave at County Hwy-876 Daniels Pkwy.,S Cleveland Ave,Fort Myers,Lee,FL,33907,US,US/Eastern,KFMY,2016-07-10 12:53:00,91.9,,48.0,30.1,10.0,Calm,,,Clear,False,False,False,False,False,False,False,False,False,False,False,True,False,Day,Day,Day,Day
A-110984,Source2,3,2016-05-31 20:34:27,2016-05-31 21:19:27,34.029872999999995,-118.392464,,,0.01,One lane blocked due to accident on I-10 Eastbound near Exit 6 Robertson Pl.,I-10 E,Los Angeles,Los Angeles,CA,90034,US,US/Pacific,KSMO,2016-05-31 20:51:00,62.1,,84.0,29.88,10.0,SW,6.9,,Overcast,False,False,False,False,False,False,False,False,False,False,False,False,False,Night,Night,Day,Day
A-73764,Source2,2,2016-11-21 02:55:31,2016-11-21 03:40:19,34.364883,-118.503555,,,0.01,Accident on CA-14 Northbound at Exit 2 Newhall Ave.,CA-14 N,Newhall,Los Angeles,CA,91321,US,US/Pacific,K3A6,2016-11-21 02:51:00,55.0,55.0,100.0,29.03,10.0,SSE,7.0,0.02,Light Rain,False,False,False,False,False,False,False,False,False,False,False,False,False,Night,Night,Night,Night
A-94364,Source2,2,2016-09-01 11:38:27,2016-09-01 12:08:27,33.847778000000005,-117.871704,,,0.0,#1 lane blocked due to accident on CA-57 Northbound at Exits 5A 5B CA-91.,Riverside Fwy E,Anaheim,Orange,CA,92806,US,US/Pacific,KFUL,2016-09-01 11:53:00,77.0,,62.0,29.89,8.0,SSE,4.6,,Clear,False,False,False,False,False,False,False,False,False,False,False,False,False,Day,Day,Day,Day
A-118771,Source2,2,2016-12-19 07:53:42,2016-12-19 08:23:18,25.883984,-80.32373,,,0.01,Right lane blocked due to accident on FL-826 Palmetto Expy Southbound after 68th St.,W 68th St,Hialeah,Miami-Dade,FL,33014,US,US/Eastern,KOPF,2016-12-19 07:53:00,78.1,,87.0,30.29,10.0,ESE,6.9,,Partly Cloudy,False,False,False,False,False,False,False,False,False,False,False,True,False,Day,Day,Day,Day
A-191947,Source2,2,2016-09-07 16:31:50,2016-09-07 17:01:50,42.910019,-83.57222,,,0.0,Accident on McCandlish Rd at Vassar Rd.,Vassar Rd,Grand Blanc,Genesee,MI,48439-7407,US,US/Eastern,KFNT,2016-09-07 16:37:00,82.0,,79.0,29.97,10.0,WSW,12.7,0.0,Clear,False,False,False,False,False,False,False,False,False,False,False,False,False,Day,Day,Day,Day
A-37653,Source2,2,2016-05-05 20:05:53,2016-05-05 20:53:00,37.665779,-122.396469,,,0.01,Accident on US-101 Northbound at Exits 425B 425C 426A 426B Oyster Point Blvd.,US-101 N,South San Francisco,San Mateo,CA,94080,US,US/Pacific,KSFO,2016-05-05 19:56:00,60.1,,86.0,29.86,10.0,West,12.7,,Mostly Cloudy,False,False,False,False,False,False,False,False,False,False,False,False,False,Night,Day,Day,Day
A-142138,Source2,2,2016-06-28 04:33:45,2016-06-28 05:18:45,27.067856,-81.958199,,,0.0,Accident on Madison Ave both ways at US-17.,SW Highway 17,Arcadia,DeSoto,FL,34269,US,US/Eastern,KPGD,2016-06-28 04:53:00,75.0,,96.0,30.01,10.0,SE,3.5,,Clear,False,False,False,False,False,False,False,False,False,False,False,False,False,Night,Night,Night,Night
A-196074,Source2,2,2016-12-13 06:12:15,2016-12-13 06:42:03,42.42379,-71.25099200000002,,,0.01,Accident on MA-2 Eastbound near Spring St.,Spring St,Lexington,Middlesex,MA,02421,US,US/Eastern,KBED,2016-12-13 05:56:00,33.1,24.9,61.0,30.06,10.0,West,10.4,,Clear,False,False,False,False,True,False,False,False,False,False,False,False,False,Night,Night,Day,Day
A-101804,Source2,2,2016-04-12 19:51:17,2016-04-12 20:41:00,32.808167,-117.005615,,,0.01,Accident on CA-125 Southbound at Grossmont College Dr.,CA-125 S,El Cajon,San Diego,CA,92020,US,US/Pacific,KSEE,2016-04-12 20:47:00,59.0,,88.0,30.16,10.0,WNW,6.9,,Clear,False,False,False,False,False,False,False,False,False,False,False,False,False,Night,Night,Day,Day
A-168258,Source2,2,2016-12-16 13:26:49,2016-12-16 14:11:36,41.90657,-87.927673,,,0.01,Accident on IL-64 North Ave at Clinton Ave.,N Clinton Ave,Elmhurst,Dupage,IL,60126-2403,US,US/Central,KORD,2016-12-16 13:51:00,19.0,6.1,59.0,30.01,10.0,SE,12.7,,Overcast,False,False,True,False,False,False,False,False,False,False,False,False,False,Day,Day,Day,Day
A-175419,Source2,3,2016-08-12 21:40:00,2016-08-12 22:10:00,41.849091,-87.612915,,,0.0,Queueing traffic and Right lane closed due to accident on I-55 Stevenson Expy Southbound at US-41 Lake Shore Dr.,S Lake Shore Dr S,Chicago,Cook,IL,60616,US,US/Central,KMDW,2016-08-12 21:28:00,75.0,,94.0,29.8,2.0,Calm,,0.13,Rain,False,False,False,False,False,False,False,False,False,False,False,False,False,Night,Night,Night,Night
A-9109,Source2,2,2016-12-30 18:14:54,2016-12-30 18:44:34,38.041252,-121.988007,,,0.0,Accident on Nichols Rd at Port Chicago Hwy.,Nichols Rd,Pittsburg,Contra Costa,CA,94565,US,US/Pacific,KCCR,2016-12-30 17:53:00,54.0,,62.0,29.88,10.0,SSW,9.2,,Clear,False,False,False,False,False,False,False,False,False,False,False,False,False,Night,Night,Night,Day
A-147362,Source2,2,2016-12-15 06:33:31,2016-12-15 07:32:21,33.447392,-82.031654,,,0.01,Accident on US-78 Gordon Hwy at Milledgeville Rd.,Milledgeville Rd,Augusta,Richmond,GA,30904,US,US/Eastern,KDNL,2016-12-15 06:51:00,44.6,40.7,81.0,30.09,10.0,WNW,6.9,,Mostly Cloudy,False,False,True,False,False,False,False,False,False,False,False,True,False,Night,Night,Day,Day
A-81279,Source2,3,2016-10-03 22:10:52,2016-10-03 22:53:39,34.087196,-118.234116,,,0.0,One lane blocked due to accident on I-5 Northbound at Exit 137B CA-110.,I-5 N,Los Angeles,Los Angeles,CA,90031,US,US/Pacific,KCQT,2016-10-03 21:47:00,64.9,,73.0,29.89,10.0,Calm,,,Clear,False,False,False,False,False,False,False,False,False,False,False,False,False,Night,Night,Night,Night
A-32622,Source2,3,2016-04-01 20:46:58,2016-04-01 21:33:00,37.711384,-122.127563,,,0.0,Slow traffic due to accident on I-580 Eastbound at I-580 Exit 32 / 150th Ave.,MacArthur Fwy E,San Leandro,Alameda,CA,94578,US,US/Pacific,KHWD,2016-04-01 20:54:00,54.0,,77.0,30.21,10.0,NW,9.2,,Clear,False,False,False,False,True,False,False,False,False,False,False,False,False,Night,Night,Night,Day
A-128815,Source2,2,2016-11-22 07:45:21,2016-11-22 08:15:08,27.880144,-82.797882,,,0.0,Accident on Ridge Rd at Walsingham Rd.,Ridge Rd,Largo,Pinellas,FL,33778-3030,US,US/Eastern,KPIE,2016-11-22 07:53:00,57.0,,51.0,30.17,10.0,NE,9.2,,Clear,False,False,False,False,False,False,False,False,False,False,False,True,False,Day,Day,Day,Day
A-168382,Source2,2,2016-12-19 09:05:11,2016-12-19 10:04:55,41.622669,-87.623222,,,0.01,Accident on IL-83 Sibley Blvd at Riverside Dr.,Riverside Dr,South Holland,Cook,IL,60473,US,US/Central,KIGQ,2016-12-19 09:15:00,-2.6,-12.9,79.0,30.77,10.0,SSW,4.6,,Clear,False,False,False,False,False,False,False,False,False,False,False,False,False,Day,Day,Day,Day
A-193089,Source2,2,2016-07-08 18:51:47,2016-07-08 19:36:55,42.988556,-83.741158,,,0.0,Accident on Miller Rd at Claude Ave.,G3265 Miller Rd,Flint,Genesee,MI,48507-1358,US,US/Eastern,KFNT,2016-07-08 18:53:00,81.0,,65.0,29.72,10.0,WSW,10.4,0.14,Mostly Cloudy,False,False,False,False,False,False,False,False,False,False,False,False,False,Day,Day,Day,Day
A-169809,Source2,2,2017-01-18 19:22:36,2017-01-18 20:07:15,41.789364,-87.916985,,,0.01,Slow traffic due to accident on County Line Rd at 55th St.,S County Line Rd,Hinsdale,DuPage,IL,60521,US,US/Central,KMDW,2017-01-18 18:53:00,35.1,25.9,85.0,30.12,9.0,SSW,13.8,,Overcast,False,False,False,False,False,False,False,False,False,False,False,True,False,Night,Night,Night,Night
A-97335,Source2,2,2016-03-23 18:08:55,2016-03-23 18:38:55,33.642277,-117.859413,,,0.01,Accident on CA-73 Northbound at Exits 13 14 14A MacArthur Blvd.,CA-73 N,Irvine,Orange,CA,92617,US,US/Pacific,KSNA,2016-03-23 17:53:00,71.1,,20.0,30.1,10.0,WSW,6.9,,Partly Cloudy,False,False,False,False,False,False,False,False,False,False,False,False,False,Day,Day,Day,Day
A-87973,Source2,2,2016-08-09 20:33:03,2016-08-09 21:18:03,33.853939000000004,-117.906784,,,0.0,Right hand shoulder blocked due to accident on CA-91 Westbound near Exit 29 Raymond Ave.,CA-91 W,Anaheim,Orange,CA,92805,US,US/Pacific,KFUL,2016-08-09 20:53:00,72.0,,68.0,29.84,10.0,Calm,,,Clear,False,False,False,False,False,False,False,False,False,False,False,False,False,Night,Night,Day,Day
A-10593,Source2,2,2017-01-10 12:31:04,2017-01-10 13:30:36,37.722054,-121.538399,,,0.01,Accident on Mountain House Pkwy Northbound at I-580.,I-580 E,Tracy,San Joaquin,CA,95377,US,US/Pacific,KLVK,2017-01-10 12:53:00,55.9,,84.0,29.87,3.0,SSW,10.4,0.1,Rain,False,False,False,False,True,False,False,False,False,False,False,False,False,Day,Day,Day,Day
A-121098,Source2,2,2017-01-05 06:36:52,2017-01-05 07:06:40,28.42190900000001,-82.302864,,,0.01,Accident on County Hwy-41 Lake Iola Rd at Middle Lake Dr.,Lake Iola Rd,Dade City,Pasco,FL,33523,US,US/Eastern,KZPH,2017-01-05 06:35:00,,,,29.93,10.0,Calm,,,Mostly Cloudy,False,False,False,False,False,False,False,False,False,False,False,False,False,Night,Night,Day,Day
A-92992,Source2,3,2016-08-27 17:55:38,2016-08-27 18:25:38,34.068591999999995,-118.151184,,,0.0,Right lane blocked due to accident on I-10 Eastbound at Exit 22 Fremont Ave.,S Fremont Ave,Alhambra,Los Angeles,CA,91803,US,US/Pacific,KCQT,2016-08-27 17:47:00,72.0,,64.0,29.92,10.0,Variable,5.8,,Clear,False,False,False,False,False,False,False,False,False,False,False,False,False,Day,Day,Day,Day
A-102937,Source2,3,2016-04-19 14:50:39,2016-04-19 15:50:39,33.916458,-118.370323,,,0.01,Accident and vehicles spun around on I-405 Northbound near Exits 44 45A El Segundo Blvd.,W El Segundo Blvd,Hawthorne,Los Angeles,CA,90250,US,US/Pacific,KHHR,2016-04-19 14:53:00,82.0,,22.0,29.95,10.0,WSW,11.5,,Clear,False,False,False,False,False,False,False,False,False,False,False,False,False,Day,Day,Day,Day
A-19018,Source2,3,2016-11-27 19:00:53,2016-11-27 19:45:20,38.546047,-121.509056,,,0.01,#3 lane blocked and very slow traffic due to accident on I-5 Northbound after Exit 516 Sutterville Rd.,I-5 N,Sacramento,Sacramento,CA,95818,US,US/Pacific,KSAC,2016-11-27 18:53:00,51.1,,71.0,30.09,10.0,Calm,,,Mostly Cloudy,False,False,False,False,False,False,False,False,False,False,False,False,False,Night,Night,Night,Night
A-95353,Source2,3,2016-09-05 16:52:24,2016-09-05 17:37:24,33.749634,-118.272179,,,0.0,Accident on CA-47 Harbor Fwy Westbound after Ferry St.,CA-47 N,San Pedro,Los Angeles,CA,90731,US,US/Pacific,KTOA,2016-09-05 16:55:00,71.6,,73.0,29.78,10.0,West,11.5,,Partly Cloudy,False,False,False,False,False,False,False,False,False,False,False,False,False,Day,Day,Day,Day
A-95608,Source2,3,2016-09-06 12:19:08,2016-09-06 12:53:00,34.235107,-118.412354,,,0.0,Right hand shoulder blocked due to multi-vehicle accident on I-5 Southbound at Exit 153B CA-170.,CA-170 S,Pacoima,Los Angeles,CA,91331,US,US/Pacific,KWHP,2016-09-06 11:50:00,75.2,,47.0,29.88,10.0,Calm,,,Clear,False,False,False,False,True,False,False,False,False,False,False,False,False,Day,Day,Day,Day
A-18107,Source2,2,2016-11-22 10:45:27,2016-11-22 11:15:07,37.33097100000001,-121.821518,,,0.0,Accident on Bayhaven Dr at Waverly Ave.,Waverly Ave,San Jose,Santa Clara,CA,95122,US,US/Pacific,KRHV,2016-11-22 10:47:00,59.0,,63.0,30.23,10.0,WSW,11.5,,Clear,False,False,True,False,False,False,False,False,False,False,False,False,False,Day,Day,Day,Day
A-39677,Source2,3,2016-05-23 19:22:55,2016-05-23 19:52:55,37.63975900000001,-121.884644,,,0.01,One lane blocked due to accident on I-680 Northbound at Exit 25 Pleasanton Sunol Rd.,I-680 S,Pleasanton,Alameda,CA,94566,US,US/Pacific,KLVK,2016-05-23 18:53:00,61.0,,67.0,29.88,10.0,West,16.1,,Scattered Clouds,False,False,False,False,False,False,False,False,False,False,False,False,False,Day,Day,Day,Day
A-161411,Source2,2,2016-12-19 18:13:26,2016-12-19 18:43:11,41.600826,-93.625755,,,0.01,Accident on University Ave Westbound at 6th Ave.,6th Ave,Des Moines,Polk,IA,50314,US,US/Central,KDSM,2016-12-19 17:54:00,21.9,8.2,60.0,30.4,10.0,SSW,16.1,,Partly Cloudy,False,False,True,False,False,False,False,False,True,False,False,True,False,Night,Night,Night,Day
A-177406,Source2,2,2016-06-29 07:44:18,2016-06-29 08:29:18,42.163326,-88.055115,,,0.0,Multi-vehicle accident on US-12 Rand Rd at County Hwy-43 Long Grove Rd.,Long Grove Rd,Lake Zurich,Lake,IL,60047,US,US/Central,KPWK,2016-06-29 07:52:00,66.0,,60.0,30.15,10.0,NNW,6.9,,Clear,False,False,True,False,False,False,False,False,False,False,False,True,False,Day,Day,Day,Day
A-153730,Source2,2,2016-09-27 11:09:27,2016-09-27 11:39:08,34.371845,-81.994598,,,0.0,Accident on SC-39 at Crestview Rd.,Highway 39,Mountville,Laurens,SC,29370-3839,US,US/Eastern,KLUX,2016-09-27 11:15:00,77.0,,78.0,29.99,10.0,WSW,3.5,,Scattered Clouds,False,False,False,False,False,False,False,False,False,False,False,False,False,Day,Day,Day,Day
A-35158,Source2,3,2016-04-19 16:25:56,2016-04-19 17:10:56,37.850994,-122.299484,,,0.01,Gore point obstructed due to accident on I-80 I-580 Westbound at Exit 10 I-580.,I-580 E,Berkeley,Alameda,CA,94710,US,US/Pacific,KOAK,2016-04-19 16:53:00,73.0,,31.0,29.91,10.0,WNW,12.7,,Mostly Cloudy,False,False,False,False,False,False,False,False,False,False,False,False,False,Day,Day,Day,Day
A-43990,Source2,3,2016-06-24 13:40:53,2016-06-24 14:40:53,32.970097,-117.249359,,,0.0,Accident on I-5 Northbound near Exit 34 Del Mar Heights Rd. On the median.,I-5 N,San Diego,San Diego,CA,92130,US,US/Pacific,KNKX,2016-06-24 13:55:00,78.1,,52.0,29.93,10.0,SW,11.5,,Partly Cloudy,False,False,False,False,False,False,False,False,False,False,False,False,False,Day,Day,Day,Day
A-60759,Source2,2,2017-01-05 18:10:00,2017-01-05 18:54:40,34.03043,-117.676544,,,0.01,HOV lane blocked due to accident on CA-60 Westbound after Exit 34 Mountain Ave.,Pomona Fwy W,Chino,San Bernardino,CA,91710,US,US/Pacific,KCNO,2017-01-05 17:53:00,59.0,,87.0,29.96,7.0,SW,15.0,,Scattered Clouds,False,False,False,False,False,False,False,False,False,False,False,False,False,Night,Night,Night,Day
A-41503,Source2,3,2016-06-07 19:27:17,2016-06-07 20:12:17,38.605675,-121.507339,,,0.01,Shoulder blocked on exit ramp due to accident on I-5 Northbound at Exits 521 521A Garden Hwy.,I-5 N,Sacramento,Sacramento,CA,95833,US,US/Pacific,KMCC,2016-06-07 19:35:00,77.0,,50.0,29.81,10.0,South,16.1,,Clear,False,False,False,False,False,False,False,False,False,False,False,False,False,Day,Day,Day,Day
A-550,Source2,2,2016-03-09 06:42:51,2016-03-09 07:12:51,39.67155800000001,-84.252678,,,0.0,Accident on Elm St at Central Ave.,S Elm St,Dayton,Montgomery,OH,45449-1733,US,US/Eastern,KMGY,2016-03-09 06:53:00,55.9,,64.0,30.03,10.0,South,9.2,,Clear,False,False,False,False,False,False,False,False,False,False,False,False,False,Night,Day,Day,Day
A-89324,Source2,2,2016-08-13 09:40:52,2016-08-13 11:10:52,34.095734,-117.90155,,,0.0,Accident on Cypress St Westbound at Heathdale Ave.,E Cypress St,Covina,Los Angeles,CA,91722-2665,US,US/Pacific,KEMT,2016-08-13 09:51:00,78.8,,51.0,29.97,10.0,South,4.6,,Clear,False,False,False,False,False,False,False,False,False,False,False,False,False,Day,Day,Day,Day
A-197713,Source2,3,2016-12-23 15:21:53,2016-12-23 15:51:33,41.390369,-73.59796899999998,,,0.01,Right hand shoulder blocked due to accident on I-684 Northbound before Exits 9E 9W I-84.,I-84 E,Brewster,Putnam,NY,10509,US,US/Eastern,KDXR,2016-12-23 14:53:00,43.0,38.8,43.0,30.38,10.0,WSW,6.9,,Clear,False,False,False,False,False,False,False,False,False,False,False,False,False,Day,Day,Day,Day
A-185067,Source2,2,2016-11-09 19:02:57,2016-11-09 19:32:46,43.002468,-83.645645,,,0.0,Accident on Dunn Ct near Trout Dr.,Trout Dr,Flint,Genesee,MI,48507-2082,US,US/Eastern,KFNT,2016-11-09 18:53:00,43.0,40.3,65.0,30.21,10.0,South,4.6,,Clear,False,False,False,False,False,False,False,False,False,False,False,False,False,Night,Night,Night,Night
A-57450,Source2,3,2016-12-18 14:29:32,2016-12-18 15:14:03,34.012581,-118.490646,,,0.01,Accident on I-10 Westbound at Exits 1A 1B Olympic Blvd.,I-10 W,Santa Monica,Los Angeles,CA,90401,US,US/Pacific,KSMO,2016-12-18 14:51:00,63.0,,15.0,30.14,10.0,SSW,6.9,,Clear,False,False,False,False,True,False,False,False,False,False,False,False,False,Day,Day,Day,Day
A-196927,Source2,2,2016-12-19 07:23:10,2016-12-19 07:52:58,40.856102,-73.832863,,,0.01,Accident on Hutchinson River Pkwy Northbound at Exits 3E 3W Bronx and Pelham Pkwy.,Bronx and Pelham Pkwy,Bronx,Bronx,NY,10461,US,US/Eastern,KLGA,2016-12-19 07:51:00,26.1,15.6,53.0,30.71,10.0,North,11.5,,Mostly Cloudy,False,False,False,False,True,False,False,False,False,False,False,False,False,Day,Day,Day,Day
A-92603,Source2,3,2016-08-26 06:14:26,2016-08-26 06:49:00,34.298813,-117.457321,,,0.0,Left hand shoulder blocked due to accident on I-15 Northbound before Exit 129 Cajon Blvd.,I-15 N,San Bernardino,San Bernardino,CA,92407,US,US/Pacific,KSBD,2016-08-26 06:14:00,63.7,,85.0,29.95,5.0,Calm,,,Haze,False,False,False,False,False,False,False,False,False,False,False,False,False,Night,Day,Day,Day
A-45248,Source2,3,2016-06-29 12:58:02,2016-06-29 13:58:02,33.945038000000004,-118.36834,,,0.0,Accident on I-405 Northbound at Exits 46 47 Century Blvd.,I-405 N,Inglewood,Los Angeles,CA,90304,US,US/Pacific,KHHR,2016-06-29 12:53:00,75.9,,64.0,29.91,5.0,West,9.2,,Haze,False,False,False,False,False,False,False,False,False,False,False,False,False,Day,Day,Day,Day
A-5819,Source2,2,2016-12-06 10:48:00,2016-12-06 11:17:51,38.379616,-121.223831,,,0.01,Accident on Alta Mesa Rd at Walmort Rd.,Alta Mesa Rd,Wilton,Sacramento,CA,95693-8528,US,US/Pacific,KMHR,2016-12-06 10:50:00,41.0,38.0,100.0,30.1,2.0,ESE,4.6,,Mostly Cloudy,False,False,False,False,False,False,False,False,False,False,False,False,False,Day,Day,Day,Day
A-103295,Source2,2,2016-04-20 19:16:26,2016-04-20 19:46:26,34.438873,-118.369812,,,0.01,Accident on CA-14 Eastbound in Russ.,CA-14 N,Santa Clarita,Los Angeles,CA,91390,US,US/Pacific,K3A6,2016-04-20 18:51:00,78.0,78.0,13.0,29.03,10.0,WNW,6.0,0.0,Fair,False,False,False,False,False,False,False,False,False,False,False,False,False,Day,Day,Day,Day
A-55937,Source2,2,2016-12-13 09:03:42,2016-12-13 09:37:00,33.887863,-117.412437,,,0.01,#2 lane blocked due to accident on Van Buren Blvd Eastbound at Canyon Ridge Rd.,Canyon Ridge Rd,Riverside,Riverside,CA,92503-9600,US,US/Pacific,KRAL,2016-12-13 08:53:00,57.9,,84.0,30.11,4.0,South,5.8,,Haze,False,False,False,False,False,False,False,False,False,False,False,True,False,Day,Day,Day,Day
A-194087,Source2,3,2016-07-29 08:17:15,2016-07-29 08:47:15,42.630402,-82.849747,,,0.0,Left hand shoulder blocked due to accident on I-94 Westbound at Exits 240 240A 240B M-59 William P Rosso Hwy.,I-94 W,Harrison Township,Macomb,MI,48045,US,US/Eastern,KMTC,2016-07-29 07:58:00,70.0,,83.0,29.93,10.0,North,4.6,,Partly Cloudy,False,False,False,False,False,False,False,False,False,False,False,False,False,Day,Day,Day,Day
A-47725,Source2,3,2016-07-09 20:41:47,2016-07-09 21:11:47,34.320984,-118.49617,,,0.0,Accident on I-5 Southbound in Olive View.,I-5 N,Sylmar,Los Angeles,CA,91342,US,US/Pacific,KWHP,2016-07-09 19:53:00,84.2,,30.0,29.99,10.0,ESE,9.2,,Clear,False,False,False,False,False,False,False,False,False,False,False,False,False,Night,Night,Day,Day
A-31866,Source2,2,2016-03-28 18:36:18,2016-03-28 19:51:18,38.62302800000001,-121.328407,,,0.01,Accident on Fair Oaks Blvd near Stanley Ave.,Fair Oaks Blvd,Carmichael,Sacramento,CA,95608-3811,US,US/Pacific,KMCC,2016-03-28 18:30:00,55.4,,47.0,29.87,10.0,North,6.9,,Partly Cloudy,False,False,True,False,False,False,False,False,False,False,False,False,False,Day,Day,Day,Day
A-58586,Source2,3,2016-12-22 21:33:58,2016-12-22 22:18:38,33.61476500000001,-117.707458,,,0.01,#1 lane blocked due to accident on I-5 Southbound at Exit 91 Bridger Rd.,El Toro Rd,Lake Forest,Orange,CA,92630,US,US/Pacific,KSNA,2016-12-22 21:53:00,60.1,,93.0,30.04,10.0,Calm,,,Overcast,False,False,False,False,False,False,False,False,False,False,False,False,False,Night,Night,Night,Night
A-171685,Source2,3,2016-11-15 16:10:59,2016-11-15 16:40:42,38.502556,-90.330345,,,0.01,Two lanes blocked due to accident on I-255 Eastbound at Exit 1B US-61 Lemay Ferry Rd.,Lemay Ferry Rd,Saint Louis,St. Louis County,MO,63129,US,US/Central,KCPS,2016-11-15 15:53:00,61.0,,50.0,29.95,10.0,WNW,4.6,,Clear,False,False,False,False,False,False,False,False,False,False,False,False,False,Day,Day,Day,Day
A-5322,Source2,2,2016-12-02 11:15:26,2016-12-02 11:45:09,37.62373,-120.934288,,,0.0,Accident on Finch Rd at Mariposa Rd.,Finch Rd,Modesto,Stanislaus,CA,95354,US,US/Pacific,KMOD,2016-12-02 10:53:00,55.9,,36.0,30.2,10.0,NW,16.1,,Clear,False,False,False,False,False,False,False,False,False,False,False,False,False,Day,Day,Day,Day
A-75587,Source2,2,2016-11-28 03:38:17,2016-11-28 04:37:34,34.0369,-118.636047,,,0.0,Accident on Las Flores Canyon Rd Northbound at CA-1 Pacific Coast Hwy.,Las Flores Canyon Rd,Malibu,Los Angeles,CA,90265-5237,US,US/Pacific,KSMO,2016-11-28 03:51:00,50.0,,50.0,29.99,10.0,North,3.5,,Clear,False,False,True,False,False,False,False,False,False,False,False,True,False,Night,Night,Night,Night
A-108793,Source2,2,2016-05-24 10:13:00,2016-05-24 10:43:00,34.029205,-118.01255,,,0.01,Right hand shoulder blocked due to accident on CA-60 Westbound at Exit 13 Crossroads Pkwy.,Pomona Fwy W,La Puente,Los Angeles,CA,91746,US,US/Pacific,KEMT,2016-05-24 09:45:00,62.6,,63.0,30.01,10.0,Calm,,,Mostly Cloudy,False,False,False,False,False,False,False,False,False,False,False,False,False,Day,Day,Day,Day
A-121768,Source2,3,2017-01-10 07:05:01,2017-01-10 07:34:40,28.194075,-82.383972,,,0.01,Shoulder blocked on entry ramp due to accident on I-75 Southbound at Exit 275 FL-56.,State Road 56,Wesley Chapel,Pasco,FL,33544,US,US/Eastern,KVDF,2017-01-10 07:15:00,46.4,,93.0,30.44,10.0,Calm,,,Clear,False,False,False,False,False,False,False,False,False,False,False,False,False,Night,Day,Day,Day
A-73221,Source2,3,2016-11-18 11:41:11,2016-11-18 12:14:00,34.071465,-118.123505,,,0.01,Lane blocked on exit ramp due to accident on I-10 Eastbound at Garfield Ave.,I-10 E,Alhambra,Los Angeles,CA,91803,US,US/Pacific,KCQT,2016-11-18 11:47:00,75.9,,8.0,30.04,10.0,Calm,,,Clear,False,False,False,False,False,False,False,False,False,False,False,False,False,Day,Day,Day,Day
A-128702,Source2,2,2016-11-21 10:54:43,2016-11-21 11:24:21,27.938875,-82.78125,,,0.01,Accident on Belleair Rd at Lady Mary Dr.,Belleair Rd,Clearwater,Pinellas,FL,33756-2275,US,US/Eastern,KPIE,2016-11-21 10:53:00,59.0,,27.0,30.2,10.0,North,5.8,,Clear,False,False,False,False,False,False,False,False,False,False,False,False,False,Day,Day,Day,Day
A-25048,Source2,2,2016-10-17 09:44:59,2016-10-17 10:14:40,37.570869,-122.313889,,,0.01,Right hand shoulder blocked due to accident on US-101 Northbound at Exit 416 3rd Ave.,E 3rd Ave,San Mateo,San Mateo,CA,94401,US,US/Pacific,KSFO,2016-10-17 09:56:00,64.0,,65.0,30.05,10.0,WSW,9.2,,Partly Cloudy,False,False,False,False,False,False,False,False,False,False,False,False,False,Day,Day,Day,Day
A-62043,Source2,2,2017-01-11 18:17:09,2017-01-11 19:01:48,34.157112,-118.448685,,,0.01,Accident on US-101 Eastbound near Exit 17 Van Nuys Blvd.,US-101 N,Sherman Oaks,Los Angeles,CA,91403,US,US/Pacific,KVNY,2017-01-11 17:51:00,57.0,,64.0,29.96,10.0,WNW,3.5,,Partly Cloudy,False,False,False,False,False,False,False,False,False,False,False,False,False,Night,Night,Night,Day
A-31839,Source2,2,2016-03-28 14:35:23,2016-03-28 15:05:23,38.0131,-122.001846,,,0.01,Right hand shoulder blocked due to accident on CA-4 Westbound at Exit 17 Willow Pass Rd.,CA-4 W,Concord,Contra Costa,CA,94520,US,US/Pacific,KCCR,2016-03-28 14:53:00,60.1,,38.0,29.85,10.0,West,8.1,0.0,Light Rain,False,False,False,False,False,False,False,False,False,False,False,False,False,Day,Day,Day,Day
A-27924,Source2,3,2016-08-19 00:36:00,2016-08-19 01:21:00,38.673695,-121.681908,,,0.0,Accident on I-5 Northbound after Exit 536. On the median.,I-5 N,Woodland,Yolo,CA,95776,US,US/Pacific,KSMF,2016-08-19 00:53:00,70.0,,57.0,29.78,10.0,SE,8.1,,Clear,False,False,False,False,False,False,False,False,False,False,False,False,False,Night,Night,Night,Night
A-113482,Source2,3,2016-06-09 11:05:49,2016-06-09 11:35:49,34.135513,-118.003059,,,0.0,Accident on I-210 Westbound at Exit 34 Evergreen Ave.,Foothill Fwy E,Monrovia,Los Angeles,CA,91016,US,US/Pacific,KEMT,2016-06-09 10:45:00,71.6,,64.0,29.93,6.0,South,8.1,,Haze,False,False,False,False,False,False,False,False,False,False,False,False,False,Day,Day,Day,Day
A-150510,Source2,2,2016-10-31 04:27:40,2016-10-31 04:57:11,33.518547,-81.595528,,,0.01,Accident on US-78 Charleston Hwy at Mcvey Rd.,Charleston Hwy,Aiken,Aiken,SC,29801-8167,US,US/Eastern,KAIK,2016-10-31 04:35:00,55.4,,82.0,30.08,10.0,Calm,,,Clear,False,False,False,False,False,False,False,False,False,False,False,False,False,Night,Night,Night,Night
A-178740,Source2,2,2016-07-28 19:53:37,2016-07-28 20:53:37,41.860489,-87.99146999999998,,,0.0,Slow traffic due to accident on IL-38 Roosevelt Rd at Church Ave.,S Church Ave,Lombard,DuPage,IL,60148,US,US/Central,KORD,2016-07-28 19:51:00,72.0,,87.0,29.91,10.0,North,9.2,,Overcast,False,False,False,False,False,False,False,False,False,False,False,False,False,Day,Day,Day,Day
A-130642,Source2,3,2016-09-13 16:28:50,2016-09-13 17:13:50,25.93162,-80.204338,,,0.0,Queueing traffic and right lane blocked due to accident on I-95 Northbound at Exits 12 12C 2nd Ave.,I-95 S,Miami,Miami-Dade,FL,33169,US,US/Eastern,KHWO,2016-09-13 16:53:00,82.9,,67.0,30.0,10.0,SE,12.7,0.0,Mostly Cloudy,False,False,False,False,False,False,False,False,False,False,False,False,False,Day,Day,Day,Day
A-186983,Source2,3,2016-09-16 10:48:54,2016-09-16 11:18:54,42.264626,-83.27034,,,0.0,Left hand shoulder blocked and left lane blocked due to accident on I-94 Westbound after Beech Daly Rd.,I-94 E,Taylor,Wayne,MI,48180,US,US/Eastern,KDTW,2016-09-16 10:53:00,71.1,,66.0,30.16,10.0,ESE,6.9,,Mostly Cloudy,False,False,False,False,False,False,False,False,False,False,False,True,False,Day,Day,Day,Day
A-159612,Source2,2,2016-07-25 09:18:24,2016-07-25 10:03:24,33.772415,-84.38329300000002,,,0.0,Accident on US-78 Ponce de Leon Ave near US-29 Juniper St.,Ponce de Leon Ave NE,Atlanta,Fulton,GA,30308-1911,US,US/Eastern,KFTY,2016-07-25 08:53:00,81.0,,74.0,30.06,10.0,Calm,,,Clear,False,False,True,False,False,False,False,False,False,False,True,True,False,Day,Day,Day,Day
A-110504,Source2,2,2016-05-30 06:17:54,2016-05-30 07:32:54,34.065228000000005,-117.806824,,,0.01,Accident on CA-57 Southbound at Exits 21 22C CA-71.,I-10 W,San Dimas,Los Angeles,CA,91773,US,US/Pacific,KPOC,2016-05-30 06:47:00,57.2,,77.0,30.04,10.0,Calm,,,Overcast,False,False,False,False,False,False,False,False,False,False,False,False,False,Day,Day,Day,Day
A-3243,Source2,3,2016-07-15 19:58:34,2016-07-15 21:13:34,37.766842,-121.333939,,,0.0,Queueing traffic due to accident on I-205 Eastbound at I-5.,I-205 E,Tracy,San Joaquin,CA,95304,US,US/Pacific,KSCK,2016-07-15 19:55:00,84.0,,32.0,29.79,10.0,NW,12.7,,Clear,False,False,False,False,False,False,False,False,False,False,False,False,False,Day,Day,Day,Day
